Technology,SiteCode,BSC_OR_RNCName,SiteName,Vendor,CityName,OMC,SiteType,Priority,Type,Region,OSV,ProposedRegion,Zone,MBU,Latitude,Longitude,_2G_OR_3G,Prime_OR_NotPrime,PMCLSiteIndoor_OR_Outdoor,GensetStatus,OMOColocation,CollocatedStatus,SitePowerProfileType,VLAN,Fixed/Non Fixed,Switch/Non Switch,P2P Links,PMP Links,MF Links,Total Links
2G,ZRT1133,QTA315,ZRT1133__S_ziarat 1 warid_MDQU6322,ZTE,ZIARAT,ZTE,Bronze,Bronze,Macro,South,HNL,R2,30.0,S4-ZOB-01,30.3846,67.7232,2G,Standby,Outdoor,Genset Installed,JAZZ,,,,Non Fixed,Non Switch,-   ,-   ,-   ,-   
2G,ZOB0951,QTA315,ZOB0951__S_Zhob1 warid_MDQS6317,ZTE,ZHOB,ZTE,Bronze,Bronze,Macro,South,HNL,R2,30.0,S4-ZOB-01,31.3431,69.4608,2G,Standby,Outdoor,Genset Installed,Jazz Host/TELENOR+UFONE Guest,,,,Non Fixed,Non Switch,-   ,-   ,-   ,-   
2G,ZOB0952,QTA315,ZOB0952__S_Zhob 5 warid_MDQS6321,ZTE,ZHOB,ZTE,Bronze,Bronze,Macro,South,HNL,R2,30.0,S4-ZOB-01,31.3394,69.4229,2G,Prime,Outdoor,Genset Installed,JAZZ,,,,Non Fixed,Non Switch,-   ,-   ,-   ,-   
2G,ZOB5440,QTA315,ZOB5440__S_ZHOBE CITY,ZTE,ZHOB,ZTE,Bronze,Bronze,Macro,South,HNL,R2,30.0,S4-ZOB-01,31.342,69.4548,2G/LTE,Standby,Outdoor,Genset Installed,JAZZ,,,13,Non Fixed,Non Switch,-   ,-   ,-   ,-   
2G,ZOB5441,QTA315,ZOB5441__S_ZHOBE HIGHWAY,ZTE,ZHOB,ZTE,Gold,Gold,Macro,South,HNL,R2,30.0,S4-ZOB-01,31.3393,69.4405,2G/LTE,Standby,Outdoor,Genset Installed,JAZZ,,,13,Non Fixed,Non Switch,-   ,-   ,-   ,-   
2G,ZOB6559,QTA315,ZOB6559__S_Musakhel 1 warid_MDQS6185,ZTE,MUSA KHEL BAZAR,ZTE,Bronze,Bronze,Macro,South,HNL,R2,30.0,S4-ZOB-01,30.8601,69.8227,2G,Standby,Outdoor,Genset Installed,JAZZ,,,,Non Fixed,Non Switch,-   ,-   ,-   ,-   
2G,ZOB6560,QTA315,ZOB6560__S_Janan_House_Jail_Roadoad Pata E451,ZTE,ZHOB,ZTE,Bronze,Bronze,Macro,South,HNL,R2,30.0,S4-ZOB-01,31.338,69.449,2G/LTE,Standby,Outdoor,Genset Installed,JAZZ,,,13,Non Fixed,Non Switch,-   ,-   ,-   ,-   
2G,HGW5246,QTA315,HGW5246_Near Bershoor,ZTE,KHANOZAI,ZTE,Bronze,Bronze,Macro,South,HNL,R2,30.0,S4-ZOB-01,30.77406,67.32692,2G/LTE,DC Shared,Outdoor,Genset Installed,Enfrashare,,,579,Non Fixed,Non Switch,-   ,-   ,-   ,-   
2G,MBH5107,QTA315,MBH5107_Near Torgash Narai,ZTE,MUSLIM BAGH,ZTE,Bronze,Bronze,Macro,South,HNL,R2,30.0,S4-ZOB-01,30.879392,67.416907,2G/LTE,DC Shared,Outdoor,Genset Installed,Enfrashare,,,579,Non Fixed,Non Switch,-   ,-   ,-   ,-   
2G,MBH5067,QTA315,MBH5067_Near Tora Tang Road,ZTE,MUSLIM BAGH,ZTE,Bronze,Bronze,Macro,South,HNL,R2,30.0,S4-ZOB-01,30.947498,67.467551,2G/LTE,DC Shared,Outdoor,Genset Installed,Enfrashare,,,579,Non Fixed,Non Switch,-   ,-   ,-   ,-   
2G,HGW4907,QTA315,HGW4907_Sarwar Khan Rd,ZTE,KHANOZAI,ZTE,Bronze,Bronze,Macro,South,HNL,R2,30.0,S4-ZOB-01,30.8284,67.24265,2G/LTE,DC Shared,Outdoor,Genset Installed,Enfrashare,,,579,Non Fixed,Non Switch,-   ,-   ,-   ,-   
2G,MBH5127,QTA315,MBH5127_Kutt Muhammad Shah,ZTE,MUSLIM BAGH,ZTE,Bronze,Bronze,Macro,South,HNL,R2,30.0,S4-ZOB-01,30.9019,67.34427,2G/LTE,DC Shared,Outdoor,Genset Installed,Enfrashare,,,579,Non Fixed,Non Switch,-   ,-   ,-   ,-   
3G,RWP0166,ISB220,URWP0166__H_GulistanColony,Huawei,RAWALPINDI,Huawei OMC,Hub,Hub,Macro,North,Mobiserve,R1,13.0,N1-RWP-01,33.5676,73.09,2G/3G/LTE,Standby,Indoor,Genset Installed,JAZZ,No,,386,Fixed Site,Switch,10,1,-   ,11
2G,ZBI3894,ISB001,ZBI3894__S_Zarobi_Town_Sawabi_SB2817,Huawei,TOPI,Huawei,Bronze,Bronze,Macro,North,HNL,R1,18.0,N2-MRD-03,34.0341,72.5667,2G/LTE,Standby,Outdoor,Genset Installed,JAZZ,,,3005,Fixed Site,Non Switch,2,-   ,-   ,2
2G,ZIK2696,ISB003,ZIK2696__S_AhmedKhel,Huawei,LAKKI MARWAT,Huawei,Bronze,Bronze,Macro,North,HNL,R1,17.0,N2-DIK-07,32.4461,70.9679,2G/LTE,Standby,Outdoor,Genset Installed,JAZZ,,,2245,Non Fixed,Non Switch,-   ,-   ,-   ,-   
2G,ZDA1436,ISB001,ZDA1436__S_JahangSwabi,Huawei,ZAIDA,Huawei,Diamond,Diamond,Macro,North,HNL,R1,18.0,N2-MRD-03,34.0483,72.4195,2G/LTE,Standby,Outdoor,Genset Installed,JAZZ,,,617,Non Fixed,Non Switch,-   ,-   ,-   ,-   
2G,ZDA1945,ISB001,ZDA1945__S_Zaida_2,Huawei,ZAIDA,Huawei,Platinum,Platinum,Macro,North,HNL,R1,15.0,N2-MRD-03,34.0734,72.4492,2G/LTE,Standby,Outdoor,Genset Installed,JAZZ,,,617,Non Fixed,Non Switch,-   ,-   ,-   ,-   
2G,ZDA3896,ISB001,ZDA3896__S_Zaida_SB3352,Huawei,ZAIDA,Huawei,Platinum,Platinum,Macro,North,HNL,R1,15.0,N2-MRD-03,34.0601,72.4674,2G/LTE,Standby,Outdoor,Genset Installed,Jazz Host/UFONE Guest,,,617,Fixed Site,Non Switch,2,-   ,-   ,2
2G,ZDA2498,ISB001,ZDA2498__S_Village_Anbar_541621,Huawei,ZAIDA,Huawei,Diamond,Diamond,Macro,North,HNL,R1,18.0,N2-MRD-03,34.0435,72.409,2G/LTE,Standby,Outdoor,Genset Installed,JAZZ,,,617,Fixed Site,Non Switch,1,-   ,-   ,1
2G,RUR7729,RYK317,RUR7729__S_BastiMuhammadShah,ZTE,KHANPUR,ZTE,Hub,Hub,Macro,Central B,HNL,R2,31.0,C7-RYK-07,28.8047,70.5414,2G/LTE,Standby,Outdoor,Genset Installed,JAZZ,,,2736,Fixed Site,Non Switch,1,-   ,-   ,1
2G,RUR3894,RYK317,RUR3894__S_Khanpur Zahir Pir Road_Enfra,ZTE,KHANPUR,ZTE,Diamond,Diamond,Macro,Central B,HNL,R2,31.0,C7-RYK-07,28.76902,70.55357,2G/LTE,CP Prime,Outdoor,Genset not Installed,Enfrashare,,,2736,Non Fixed,Non Switch,-   ,-   ,-   ,-   
2G,RUR4727,RYK317,RUR4727_Near Sufi Mohd Shrine Zahir Pir,ZTE,KHANPUR,ZTE,Diamond,Diamond,Macro,Central B,HNL,R2,31.0,C7-RYK-07,28.813562,70.526833,2G/LTE,CP Prime,Outdoor,Genset not Installed,Enfrashare,,,2736,Non Fixed,Non Switch,-   ,-   ,-   ,-   
2G,CCH5937,RYK317,CCH5937,ZTE,KHANPUR,ZTE,Diamond,Diamond,Macro,Central B,HNL,R2,31.0,C7-RYK-07,28.86875,70.547882,2G/LTE,CP Prime,Outdoor,Genset not Installed,ATL,,,2736,Non Fixed,Non Switch,-   ,-   ,-   ,-   
2G,ZAS7505,BHP353,ZAS7505__S_Zaheer_Abad_Shaheed,ZTE,MAILSI,ZTE,Platinum,Platinum,Macro,Central B,HNL,R1,25.0,C6-VHR-03,30.0776,72.0429,2G/LTE,Standby,Outdoor,Genset Installed,Jazz Host/CM-PAK Guest,,,1655,Non Fixed,Non Switch,-   ,-   ,-   ,-   
2G,ZAS7503,BHP353,ZAS7503__H_Chak75B,ZTE,KHANEWAL,ZTE,Diamond,Diamond,Macro,Central B,HNL,R2,25.0,C6-KWL-01,30.1117,72.0837,2G/LTE,Standby,Indoor,Genset Installed,JAZZ,,,1655,Non Fixed,Non Switch,-   ,-   ,-   ,-   
2G,ZAS7504,BHP353,ZAS7504__S_75B_15_L,ZTE,KHANEWAL,ZTE,Gold,Gold,Macro,Central B,HNL,R2,25.0,C6-KWL-01,30.1319,72.0416,2G/LTE,Standby,Outdoor,Genset Installed,JAZZ,,,1655,Non Fixed,Non Switch,-   ,-   ,-   ,-   
2G,ZAS1696,BHP353,ZAS1696__S_Nawan Chok,ZTE,KHANEWAL,ZTE,Platinum,Platinum,Macro,Central B,HNL,R2,25.0,C6-KWL-01,30.10725,72.01927,2G/LTE,DC Shared,Outdoor,Genset not Installed,Enfrashare,,,596,Non Fixed,Non Switch,-   ,-   ,-   ,-   
2G,RUR1357,BHP318,RUR1357__S_KOTLI NAJABAT,ZTE,SHUJABAD,ZTE,Diamond,Diamond,Macro,Central B,HNL,R2,24.0,C6-MUL-06,29.7793,71.4802,2G/LTE,DC Shared,Outdoor,Genset not Installed,Jazz Guest/TELENOR Host,,,2914,Non Fixed,Non Switch,-   ,-   ,-   ,-   
2G,RUR1449,MUL320,RUR1449__S_Pakka kacha village,ZTE,SHUJABAD,ZTE,Platinum,Platinum,Macro,Central B,HNL,R2,24.0,C6-MUL-06,29.83,71.284,2G/LTE,DC Shared,Outdoor,Genset not Installed,Jazz Guest/CM-PAK Host,,,2621,Non Fixed,Non Switch,-   ,-   ,-   ,-   
2G,SUJ4277,MUL320,SUJ4277__P_Bangla_Street_Shujabad,ZTE,SHUJABAD,ZTE,Diamond,Diamond,Macro,Central B,HNL,R2,24.0,C6-MUL-06,29.8771,71.2965,2G/LTE,Standby,Outdoor,Genset Installed,JAZZ,,,2621,Non Fixed,Non Switch,-   ,-   ,-   ,-   
2G,SUJ4276,MUL320,SUJ4276__S_Wazir_Colony_Shujabad,ZTE,SHUJABAD,ZTE,Platinum,Platinum,Macro,Central B,HNL,R2,24.0,C6-MUL-06,29.8851,71.2984,2G/LTE,Standby,Outdoor,Genset Installed,JAZZ,,,2621,Non Fixed,Non Switch,-   ,-   ,-   ,-   
2G,RUR4575,BHP318,RUR4575__S_SUJPirGhayeb,ZTE,SHUJABAD,ZTE,Platinum,Platinum,Macro,Central B,HNL,R2,24.0,C6-MUL-06,29.7854,71.2738,2G/LTE,Standby,Outdoor,Genset Installed,JAZZ,,,2910,Non Fixed,Non Switch,-   ,-   ,-   ,-   
2G,RUR4245,BHP318,RUR4245__P_ZareefShaheed,ZTE,SHUJABAD,ZTE,Elite,Elite,Macro,Central B,HNL,R2,24.0,C6-MUL-06,29.7962,71.4038,2G/LTE,Standby,Outdoor,Genset Installed,JAZZ,,,2914,Non Fixed,Non Switch,-   ,-   ,-   ,-   
2G,RUR3626,MUL320,RUR3626__S_Mor SikandarabdSUJ,ZTE,SHUJABAD,ZTE,Elite,Elite,Macro,Central B,HNL,R2,24.0,C6-MUL-06,29.9246,71.3581,2G/LTE,Standby,Outdoor,Genset Installed,Jazz Host/CM-PAK Guest,,,2621,Non Fixed,Non Switch,-   ,-   ,-   ,-   
2G,RUR3628,MUL320,RUR3628__P_AddaPullRaitwali,ZTE,SHUJABAD,ZTE,Platinum,Platinum,Macro,Central B,HNL,R2,24.0,C6-MUL-06,29.8662,71.4312,2G/LTE,Standby,Outdoor,Genset Installed,JAZZ,,,2623,Non Fixed,Non Switch,-   ,-   ,-   ,-   
4G,LHR0003,,LTE_LHR0003__P_EdenCenter,Huawei,LAHORE,Huawei OMC,Platinum,Platinum,Macro,Central A,Mobiserve,R1,5.0,C1-LHR-06,31.544,74.322,2G/3G/LTE,CP Prime,Indoor,Genset Not Installed,JAZZ,No,,143,Fixed Site,Non Switch,-   ,-   ,7,7
2G,SUJ7973,MUL320,SUJ7973__P_BastiShawala,ZTE,SHUJABAD,ZTE,Hub,Hub,Macro,Central B,HNL,R2,24.0,C6-MUL-06,29.8732,71.291,2G/LTE,Standby,Outdoor,Genset Installed,JAZZ,,,2621,Fixed Site,Switch,6,6,-   ,12
2G,SUJ8386,MUL320,SUJ8386__P_Multani Gate,ZTE,SHUJABAD,ZTE,Platinum,Platinum,Macro,Central B,HNL,R2,24.0,C6-MUL-06,29.8823,71.2934,2G/LTE,Standby,Indoor,Genset Installed,JAZZ,,,2621,Non Fixed,Non Switch,-   ,-   ,-   ,-   
2G,RUR0890,BHP318,RUR0890__S_ChahMosamwala,ZTE,SHUJABAD,ZTE,Platinum,Platinum,Macro,Central B,HNL,R2,24.0,C6-MUL-06,29.7798,71.4218,2G/LTE,Standby,Outdoor,Genset Installed,JAZZ,,,2914,Non Fixed,Non Switch,-   ,-   ,-   ,-   
2G,SUJ0105,MUL320,SUJ0105__P_Basti_UsmanAbad,ZTE,SHUJABAD,ZTE,Platinum,Platinum,Macro,Central B,HNL,R2,24.0,C6-MUL-06,29.8719,71.3135,2G/LTE,Standby,Outdoor,Genset Installed,Jazz Host/TELENOR Guest,,,2621,Non Fixed,Non Switch,-   ,-   ,-   ,-   
2G,HWY1246,MUL320,HWY1246__S_ChakSardarPur,ZTE,SHUJABAD,ZTE,Diamond,Diamond,Macro,Central B,HNL,R2,24.0,C6-MUL-06,29.8724,71.3738,2G/LTE,Standby,Outdoor,Genset Installed,Jazz Host/CM-PAK Guest,,,2621,Non Fixed,Non Switch,-   ,-   ,-   ,-   
2G,RUR1245,MUL320,RUR1245__S_SayyedWala,ZTE,SHUJABAD,ZTE,Diamond,Diamond,Macro,Central B,HNL,R2,24.0,C6-MUL-06,29.9283,71.3196,2G/LTE,Standby,Outdoor,Genset Installed,JAZZ,,,2621,Non Fixed,Non Switch,-   ,-   ,-   ,-   
2G,RUR1229,MUL320,"RUR1229__S_Moaza Soma, Usman Colony,",ZTE,SHUJABAD,ZTE,Elite,Elite,Macro,Central B,HNL,R2,24.0,C6-MUL-06,29.891,71.2582,2G/LTE,Standby,Outdoor,Genset Installed,Jazz Host/CM-PAK Guest,,,2621,Non Fixed,Non Switch,-   ,-   ,-   ,-   
2G,RUR1247,MUL320,RUR1247__S_Basti Lutt wala,ZTE,SHUJABAD,ZTE,Platinum,Platinum,Macro,Central B,HNL,R2,24.0,C6-MUL-06,29.9275,71.4065,2G/LTE,Standby,Outdoor,Genset Installed,JAZZ,,,2621,Non Fixed,Non Switch,-   ,-   ,-   ,-   
4G,LHR0026,,LTE_LHR0026__H_ThokarMaster,Huawei,LAHORE,Huawei OMC,Hub,Hub,Macro,Central A,Mobiserve,R1,4.0,C1-LHR-02,31.463,74.2382,2G/3G/LTE,Standby,Indoor,Genset Installed,JAZZ,No,,125,Fixed Site,Switch,7,-   ,10,17
2G,RUR1390,MUL320,RUR1390__S_Bari Jhoke,ZTE,SHUJABAD,ZTE,Platinum,Platinum,Macro,Central B,HNL,R2,24.0,C6-MUL-06,29.9583,71.2609,2G/LTE,Standby,Outdoor,Genset Installed,JAZZ,,,2792,Non Fixed,Non Switch,-   ,-   ,-   ,-   
2G,RUR1450,BHP318,RUR1450__P_Nawan Sher,ZTE,SHUJABAD,ZTE,Elite,Elite,Macro,Central B,HNL,R2,24.0,C6-MUL-06,29.811,71.2454,2G/LTE,Standby,Outdoor,Genset Installed,JAZZ,,,2915,Non Fixed,Non Switch,-   ,-   ,-   ,-   
2G,SUJ4290,MUL320,SUJ4290__S_Shuja Abad,ZTE,SHUJABAD,ZTE,Platinum,Platinum,Macro,Central B,HNL,R2,24.0,C6-MUL-06,29.8827,71.2878,2G/LTE,Standby,Outdoor,Genset Installed,Jazz Host/CM-PAK Guest,,,2621,Non Fixed,Non Switch,-   ,-   ,-   ,-   
2G,HWY4550,BHP318,HWY4550__S_Ganvain_Kothi__996469,ZTE,SHUJABAD,ZTE,Gold,Gold,Macro,Central B,HNL,R2,24.0,C6-MUL-06,29.732026,71.229686,2G/LTE,Standby,Outdoor,Genset Installed,JAZZ,,,2915,Non Fixed,Non Switch,-   ,-   ,-   ,-   
2G,SUJ0020,MUL320,SUJ0020__S_Shujabad2__SJ5569,ZTE,SHUJABAD,ZTE,Diamond,Diamond,Macro,Central B,HNL,R2,24.0,C6-MUL-06,29.87907,71.31692,2G/LTE,Standby,Outdoor,Genset Installed,Jazz Host/CM-PAK Guest,,,2621,Non Fixed,Non Switch,-   ,-   ,-   ,-   
2G,SUJ1683,MUL320,SUJ1683,ZTE,SHUJABAD,ZTE,Diamond,Diamond,Macro,Central B,HNL,R2,24.0,C6-MUL-06,29.88031993,71.30393384,2G/LTE,CP Prime,Outdoor,Genset not Installed,Jazz Guest/CM-PAK Host,,,2621,Non Fixed,Non Switch,-   ,-   ,-   ,-   
2G,SUJ1684,MUL320,SUJ1684__S_Al-Quresh Colony,ZTE,SHUJABAD,ZTE,Gold,Gold,Macro,Central B,HNL,R2,24.0,C6-MUL-06,29.8783,71.2906,2G/LTE,CP Prime,Outdoor,Genset not Installed,Jazz Guest/CM-PAK Host,,,2621,Non Fixed,Non Switch,-   ,-   ,-   ,-   
2G,RUR1809,MUL320,RUR1809__S_Bhaungwala,ZTE,SHUJABAD,ZTE,Platinum,Platinum,Macro,Central B,HNL,R2,24.0,C6-MUL-06,29.965306,71.173256,2G/LTE,DC Shared,Outdoor,Genset not Installed,E.Co,,,2613,Non Fixed,Non Switch,-   ,-   ,-   ,-   
2G,SHK4571,LHR013,SHK4571__P_GirjahSoalingStop,Huawei,SHEIKHUPURA,Huawei,Platinum,Platinum,Macro,Central A,Huawei,R1,7.0,C2-SKP-04,31.699,74.0293,2G/LTE,Standby,Indoor,Genset Installed,JAZZ,,,1820,Non Fixed,Non Switch,-   ,-   ,-   ,-   
2G,HWY4643,LHR013,HWY4643__H_LHRFaizpurInterchang,Huawei,LAHORE,Huawei,Hub,Hub,Macro,Central A,Huawei,R1,3.0,C2-MKR-02,31.5941,74.2189,2G/LTE,Standby,Outdoor,Genset Installed,JAZZ,,,1807,Fixed Site,Non Switch,1,-   ,-   ,1
2G,HWY5920,LHR013,HWY5920__S_RaviRayan-MRYWarid_EM4364,Huawei,KALA SHAH KAKU,Huawei,Elite,Elite,Macro,Central A,Huawei,R1,7.0,C2-MKR-02,31.7557,74.2613,2G/LTE,Standby,Outdoor,Genset Installed,JAZZ,,,650,Non Fixed,Non Switch,-   ,-   ,-   ,-   
2G,HWY5923,LHR013,HWY5923__S_KalaShahKaku_IntrchngWarid_15252,Huawei,FEROZE WALA,Huawei,Platinum,Platinum,Macro,Central A,Huawei,R1,7.0,C2-MKR-02,31.6939,74.2675,2G/LTE,Standby,Indoor,Genset Installed,JAZZ,,,3127,Non Fixed,Non Switch,-   ,-   ,-   ,-   
2G,HWY5924,LHR013,HWY5924__S_Rana Town-SHD Warid_14648,Huawei,FEROZE WALA,Huawei,Elite,Elite,Macro,Central A,Huawei,R1,7.0,C2-MKR-02,31.6819,74.2747,2G/LTE,Standby,Outdoor,Genset Installed,Jazz Guest/PTCL Host,,,1851,Non Fixed,Non Switch,-   ,-   ,-   ,-   
2G,HWY5936,LHR009,HWY5936__S_HiranminarIntrchngWarid_21939,Huawei,SHEIKHUPURA,Huawei,Diamond,Diamond,Macro,Central A,Huawei,R1,7.0,C2-SKP-04,31.7636,73.9528,2G/LTE,Standby,Indoor,Genset Installed,JAZZ,,,676,Non Fixed,Non Switch,-   ,-   ,-   ,-   
2G,HWY5943,LHR013,HWY5943__S_Dheriwala-SHK Warid_25337,Huawei,SHEIKHUPURA,Huawei,Diamond,Diamond,Macro,Central A,Huawei,R1,7.0,C2-SKP-04,31.7334,74.0971,2G/LTE,Standby,Outdoor,Genset Installed,Jazz Host/UFONE Guest,,,640,Non Fixed,Non Switch,-   ,-   ,-   ,-   
2G,HWY5949,LHR009,HWY5949__S_OPP Aya Virkan Warid_SH1885,Huawei,SHEIKHUPURA,Huawei,Elite,Elite,Macro,Central A,Huawei,R1,7.0,C2-SKP-04,31.673,73.9793,2G/LTE,Standby,Indoor,Genset Installed,JAZZ,,,677,Non Fixed,Non Switch,-   ,-   ,-   ,-   
2G,RWP1019,ISB004,RWP1019__S_NTCBritishHomes,Huawei,RAWALPINDI,Huawei,Gold,Gold,Macro,North,Mobiserve,R1,13.0,N1-ISB-05,33.6186,73.0035,2G/LTE,Standby,Outdoor,Genset Installed,JAZZ,,,748,Non Fixed,Non Switch,-   ,-   ,-   ,-   
2G,RWP1075,ISB004,RWP1075__S_RABazar,Huawei,RAWALPINDI,Huawei,Diamond,Diamond,Macro,North,Mobiserve,R1,13.0,N1-RWP-03,33.5876,73.0447,2G/LTE,Standby,Outdoor,Genset Installed,JAZZ,,,2278,Non Fixed,Non Switch,-   ,-   ,-   ,-   
2G,RWP1221,ISB007,RWP1221__H_AlShifaTrust_PQ,Huawei,RAWALPINDI,Huawei,Gold,Gold,Macro,North,Mobiserve,R1,13.0,N1-RWP-03,33.5586,73.0986,2G/LTE,CP Prime,Outdoor,Genset not Installed,JAZZ,,,685,Non Fixed,Non Switch,-   ,-   ,-   ,-   
2G,RWP1297,ISB005,RWP1297__S_DhokKalaKhan,Huawei,RAWALPINDI,Huawei,Diamond,Diamond,Macro,North,Mobiserve,R1,13.0,N1-RWP-02,33.6444,73.0994,2G/LTE,Standby,Outdoor,Genset Installed,JAZZ,,,703,Fixed Site,Non Switch,1,-   ,-   ,1
2G,RWP1020,ISB004,RWP1020__P_PirWadahi,Huawei,RAWALPINDI,Huawei,Platinum,Platinum,Macro,North,Mobiserve,R1,13.0,N1-RWP-02,33.6293,73.0402,2G/LTE,Standby,Outdoor,Genset Installed,JAZZ,,,2285,Non Fixed,Non Switch,-   ,-   ,-   ,-   
2G,RWP0199,ISB004,RWP0199__S_Naseerabad_2,Huawei,RAWALPINDI,Huawei,Platinum,Platinum,Macro,North,Mobiserve,R1,14.0,N1-ISB-05,33.6239,72.9778,2G/LTE,Standby,Outdoor,Genset Installed,Jazz Host/TELENOR Guest,,,2285,Non Fixed,Non Switch,-   ,-   ,-   ,-   
2G,RWP1295,ISB004,RWP1295__S_RattaAmral_PT,Huawei,RAWALPINDI,Huawei,Diamond,Diamond,Macro,North,Mobiserve,R1,13.0,N1-RWP-03,33.6079,73.0458,2G/LTE,CP Prime,Outdoor,Genset not Installed,Jazz Host/TELENOR Guest,,,781,Non Fixed,Non Switch,-   ,-   ,-   ,-   
2G,RWP1616,ISB007,RWP1616__S_GulistanFatimaClny,Huawei,RAWALPINDI,Huawei,Platinum,Platinum,Macro,North,Mobiserve,R1,13.0,N1-RWP-03,33.5474,73.0028,2G/LTE,CP Prime,Outdoor,Genset not Installed,Jazz Host/CM-PAK+UFONE Guest,,,777,Non Fixed,Non Switch,-   ,-   ,-   ,-   
2G,RWP1615,ISB007,RWP1615__S_BankColony,Huawei,RAWALPINDI,Huawei,Diamond,Diamond,Macro,North,Mobiserve,R1,13.0,N1-RWP-03,33.5437,73.0156,2G/LTE,CP Prime,Outdoor,Genset not Installed,Jazz Host/UFONE Guest,,,777,Fixed Site,Non Switch,1,-   ,-   ,1
2G,RWP1627,ISB005,RWP1627__S_Shakrial4,Huawei,RAWALPINDI,Huawei,Diamond,Diamond,Macro,North,Mobiserve,R1,13.0,N1-RWP-02,33.6402,73.1016,2G/LTE,Standby,Outdoor,Genset Installed,JAZZ,,,703,Non Fixed,Non Switch,-   ,-   ,-   ,-   
2G,RWP1267,ISB007,RWP1267__H_OpenAirTheater,Huawei,RAWALPINDI,Huawei,Elite,Elite,Macro,North,Mobiserve,R1,13.0,N1-RWP-03,33.5487,73.1301,2G/LTE,CP Prime,Outdoor,Genset not Installed,JAZZ,,,2291,Fixed Site,Switch,3,10,-   ,13
2G,RWP1617,ISB004,RWP1617__S_Chaakra,Huawei,RAWALPINDI,Huawei,Platinum,Platinum,Macro,North,Mobiserve,R1,13.0,N1-ISB-05,33.5873,72.9808,2G/LTE,CP Prime,Outdoor,Genset not Installed,JAZZ,,,748,Non Fixed,Non Switch,-   ,-   ,-   ,-   
2G,RWP1121,ISB005,RWP1121__S_AwanColony,Huawei,RAWALPINDI,Huawei,Platinum,Platinum,Macro,North,Mobiserve,R1,13.0,N1-RWP-02,33.6539,73.0925,2G/LTE,Standby,Outdoor,Genset Installed,Jazz Host/UFONE Guest,,,703,Non Fixed,Non Switch,-   ,-   ,-   ,-   
2G,RWP1136,ISB005,RWP1136__S_ProfessorColony_PQ,Huawei,RAWALPINDI,Huawei,Gold,Gold,Macro,North,Mobiserve,R1,13.0,N1-RWP-02,33.6358,73.1035,2G/LTE,Standby,Outdoor,Genset Installed,JAZZ,,,703,Non Fixed,Non Switch,-   ,-   ,-   ,-   
2G,RWP1137,ISB007,RWP1137__S_ChaklalaVillage,Huawei,RAWALPINDI,Huawei,Platinum,Platinum,Macro,North,Mobiserve,R1,13.0,N1-RWP-02,33.6064,73.107,2G/LTE,Standby,Outdoor,Genset Installed,Jazz Host/UFONE Guest,,,687,Fixed Site,Non Switch,1,-   ,-   ,1
2G,RWP2077,ISB005,RWP2077__S_KhanaKach,Huawei,RAWALPINDI,Huawei,Diamond,Diamond,Macro,North,Mobiserve,R1,13.0,N1-RWP-02,33.6375,73.0887,2G/LTE,Standby,Outdoor,Genset Installed,Jazz Host/TELENOR Guest,,,750,Non Fixed,Non Switch,-   ,-   ,-   ,-   
2G,HWY1188,ISB006,HWY1188__S_Murt2PanjalVlgTalain,Huawei,RAWALPINDI,Huawei,Diamond,Diamond,Macro,North,Mobiserve,R1,13.0,N1-RWP-03,33.5382,72.902,2G/LTE,Standby,Outdoor,Genset Installed,Jazz Host/CM-PAK+UFONE Guest,,,696,Non Fixed,Non Switch,-   ,-   ,-   ,-   
2G,RWP1743,ISB007,RWP1743__P_PakistanTown,Huawei,RAWALPINDI,Huawei,Hub,Hub,Macro,North,Mobiserve,R1,13.0,N1-RWP-01,33.5775,73.1438,2G/LTE,Standby,Outdoor,Genset Installed,Jazz Host/TELENOR Guest,,,2291,Non Fixed,Non Switch,-   ,-   ,-   ,-   
2G,RWP1745,ISB007,RWP1745__P_BahriaTownSchool,Huawei,RAWALPINDI,Huawei,Diamond,Diamond,Macro,North,Mobiserve,R1,13.0,N1-RWP-03,33.562,73.1166,2G/LTE,CP Prime,Outdoor,Genset not Installed,JAZZ,,,685,Non Fixed,Non Switch,-   ,-   ,-   ,-   
2G,HWY1197,ISB010,HWY1197__S_ChanniAlamshir,Huawei,RAWALPINDI,Huawei,Hub,Hub,Macro,North,Mobiserve,R1,12.0,N1-RWP-01,33.4521,73.2222,2G/LTE,Standby,Outdoor,Genset Installed,JAZZ,,,3065,Non Fixed,Non Switch,-   ,-   ,-   ,-   
2G,RWP1147,ISB007,RWP1147__S_GTRoad_PT,Huawei,RAWALPINDI,Huawei,Elite,Elite,Macro,North,Mobiserve,R1,13.0,N1-RWP-01,33.5205,73.1549,2G/LTE,Standby,Outdoor,Genset Installed,Jazz Host/TELENOR Guest,,,749,Fixed Site,Switch,14,6,-   ,20
2G,RWP7006,ISB004,RWP7006__Q_PCRWPGround_mini,Huawei,RAWALPINDI,Huawei,Bronze,Bronze,Micro,North,Mobiserve,R1,13.0,N1-RWP-03,33.5889,73.0563,2G/LTE,CP Prime,Outdoor,Genset not Installed,JAZZ,,,685,Non Fixed,Non Switch,-   ,-   ,-   ,-   
2G,RWP7129,ISB004,RWP7129__Q_PCRWP4thFloorMini,Huawei,RAWALPINDI,Huawei,Bronze,Bronze,Micro,North,Mobiserve,R1,13.0,N1-RWP-03,33.5889,73.0563,2G/LTE,CP Prime,Outdoor,Genset not Installed,JAZZ,,,685,Non Fixed,Non Switch,-   ,-   ,-   ,-   
2G,RUR2023,ISB007,RUR2023__S_GorakPur,Huawei,RAWALPINDI,Huawei,Platinum,Platinum,Macro,North,Mobiserve,R1,13.0,N1-RWP-03,33.4776,73.0333,2G/LTE,Standby,Outdoor,Genset Installed,JAZZ,,,776,Fixed Site,Non Switch,1,-   ,-   ,1
2G,HWY1848,ISB010,HWY1848__S_BagaShaikhan,Huawei,RAWALPINDI,Huawei,Platinum,Platinum,Macro,North,Mobiserve,R1,13.0,N1-RWP-01,33.4705,73.196,2G/LTE,Standby,Outdoor,Genset Installed,Jazz Host/CM-PAK Guest,,,3065,Non Fixed,Non Switch,-   ,-   ,-   ,-   
2G,RWP7112,ISB004,RWP7112__T_PirwadaiMini,Huawei,RAWALPINDI,Huawei,Bronze,Bronze,Micro,North,Mobiserve,R1,13.0,N1-RWP-02,33.6313,73.0384,2G/LTE,CP Prime,Outdoor,Genset not Installed,JAZZ,,,2247,Non Fixed,Non Switch,-   ,-   ,-   ,-   
2G,RWP1250,ISB007,RWP1250__S_Mazharabad,Huawei,RAWALPINDI,Huawei,Hub,Hub,Macro,North,Mobiserve,R1,13.0,N1-RWP-03,33.6176,73.0448,2G/LTE,Standby,Outdoor,Genset Installed,JAZZ,,,2247,Non Fixed,Non Switch,-   ,-   ,-   ,-   
2G,RWP1588,ISB005,RWP1588__S_Muslimtown2_PQ,Huawei,RAWALPINDI,Huawei,Gold,Gold,Macro,North,Mobiserve,R1,13.0,N1-RWP-02,33.6327,73.0912,2G/LTE,CP Prime,Outdoor,Genset not Installed,JAZZ,,,753,Fixed Site,Non Switch,1,-   ,-   ,1
2G,RWP1621,ISB005,RWP1621__S_Karimabad_PW,Huawei,RAWALPINDI,Huawei,Diamond,Diamond,Macro,North,Mobiserve,R1,13.0,N1-RWP-02,33.63,73.1019,2G/LTE,CP Prime,Outdoor,Genset not Installed,JAZZ,,,753,Non Fixed,Non Switch,-   ,-   ,-   ,-   
2G,RWP2195,ISB004,RWP2195__H_ChoorChowk,Huawei,RAWALPINDI,Huawei,Diamond,Diamond,Macro,North,Mobiserve,R1,13.0,N1-ISB-05,33.609,73.0091,2G/LTE,Standby,Outdoor,Genset Installed,JAZZ,,,2285,Fixed Site,Switch,5,1,-   ,6
2G,RWP1614,ISB007,RWP1614__S_AshrafColony,Huawei,RAWALPINDI,Huawei,Gold,Gold,Macro,North,Mobiserve,R1,13.0,N1-RWP-03,33.5604,73.0234,2G/LTE,CP Prime,Outdoor,Genset not Installed,JAZZ,,,777,Fixed Site,Non Switch,1,-   ,-   ,1
2G,RWP0366,ISB007,RWP0366__S_BahriaPhase8,Huawei,RAWALPINDI,Huawei,Platinum,Platinum,Macro,North,Mobiserve,R1,13.0,N1-RWP-01,33.4908,73.1029,2G/LTE,CP Prime,Outdoor,Genset not Installed,Jazz Host/UFONE Guest,,,776,Fixed Site,Non Switch,2,-   ,-   ,2
2G,RWP0368,ISB005,RWP0368__S_JabbaTownIslamabad,Huawei,ISLAMABAD,Huawei,Elite,Elite,Macro,North,Mobiserve,R1,13.0,N1-RWP-02,33.6446,73.1205,2G/LTE,CP Prime,Outdoor,Genset not Installed,Jazz Host/TELENOR+CM-PAK Guest,,,753,Non Fixed,Non Switch,-   ,-   ,-   ,-   
2G,RWP0418,ISB007,RWP0418__S_LalarukhColony,Huawei,RAWALPINDI,Huawei,Gold,Gold,Macro,North,Mobiserve,R1,13.0,N1-RWP-03,33.5589,73.0077,2G/LTE,CP Prime,Outdoor,Genset not Installed,Jazz Host/TELENOR+UFONE Guest,,,777,Non Fixed,Non Switch,-   ,-   ,-   ,-   
2G,RWP0354,ISB007,RWP0354__S_DHA2SectorE,Huawei,RAWALPINDI,Huawei,Elite,Elite,Macro,North,Mobiserve,R1,13.0,N1-RWP-01,33.5307,73.1619,2G/LTE,CP Prime,Outdoor,Genset not Installed,JAZZ,,,749,Fixed Site,Non Switch,2,-   ,-   ,2
2G,RWP0743,ISB007,RWP0743__S_DadhuShah,Huawei,RAWALPINDI,Huawei,Platinum,Platinum,Macro,North,Mobiserve,R1,12.0,N1-RWP-01,33.5414,73.2796,2G/LTE,Standby,Outdoor,Genset Installed,Jazz Host/TELENOR+CM-PAK Guest,,,3065,Non Fixed,Non Switch,-   ,-   ,-   ,-   
2G,RWP7400,ISB004,RWP7400__P_FFC,Huawei,RAWALPINDI,Huawei,Bronze,Bronze,Micro,North,Mobiserve,R1,11.0,N1-RWP-03,33.5911,73.0556,2G/LTE,CP Prime,Outdoor,Genset not Installed,JAZZ,,,687,Non Fixed,Non Switch,-   ,-   ,-   ,-   
2G,RWP0412,ISB007,RWP0412__S_BahriatownPhase8,Huawei,RAWALPINDI,Huawei,Diamond,Diamond,Macro,North,Mobiserve,R1,13.0,N1-RWP-01,33.5188,73.0927,2G/LTE,CP Prime,Outdoor,Genset not Installed,JAZZ,,,749,Fixed Site,Non Switch,1,-   ,-   ,1
2G,RUR0848,ISB010,RUR0848__S_Phalina,Huawei,KALLAR SYEDAN,Huawei,Platinum,Platinum,Macro,North,Mobiserve,R1,13.0,N1-RWP-01,33.4032,73.3267,2G/LTE,Standby,Outdoor,Genset Installed,JAZZ,,,2214,Non Fixed,Non Switch,-   ,-   ,-   ,-   
2G,RUR3182,ISB010,RUR3182__S_TakhtPari,Huawei,RAWALPINDI,Huawei,Bronze,Bronze,Macro,North,Mobiserve,R1,11.0,N1-RWP-01,33.4748,73.154,2G,Standby,Outdoor,Genset Installed,JAZZ,,,3065,Fixed Site,Non Switch,1,-   ,-   ,1
2G,RWP0419,ISB007,RWP0419__S_DHAPhse_II_B,Huawei,RAWALPINDI,Huawei,Elite,Elite,Macro,North,Mobiserve,R1,13.0,N1-RWP-01,33.5314,73.1486,2G/LTE,Standby,Outdoor,Genset Installed,JAZZ,,,749,Fixed Site,Non Switch,1,-   ,-   ,1
2G,RWP0474,ISB007,RWP0474__S_DHAPhase2H,Huawei,RAWALPINDI,Huawei,Diamond,Diamond,Macro,North,Mobiserve,R1,13.0,N1-RWP-01,33.5184,73.1669,2G/LTE,CP Prime,Outdoor,Genset not Installed,JAZZ,,,749,Fixed Site,Non Switch,1,-   ,-   ,1
2G,HWY3086,ISB010,HWY3086__S_Kaller_Sydean,Huawei,KALLAR SYEDAN,Huawei,Diamond,Diamond,Macro,North,Mobiserve,R1,13.0,N1-RWP-01,33.4423,73.3547,2G/LTE,Standby,Outdoor,Genset Installed,Jazz Host/CM-PAK Guest,,,2214,Fixed Site,Non Switch,1,-   ,-   ,1
2G,RWP0473,ISB007,RWP0473__S_NavalAnchorage,Huawei,RAWALPINDI,Huawei,Diamond,Diamond,Macro,North,Mobiserve,R1,13.0,N1-RWP-01,33.5703,73.1998,2G/LTE,CP Prime,Outdoor,Genset not Installed,JAZZ,,,2291,Non Fixed,Non Switch,-   ,-   ,-   ,-   
2G,RWP0491,ISB007,RWP0491__S_Amerpura,Huawei,RAWALPINDI,Huawei,Gold,Gold,Macro,North,Mobiserve,R1,13.0,N1-RWP-02,33.6219,73.068,2G/LTE,Standby,Outdoor,Genset Installed,JAZZ,,,750,Non Fixed,Non Switch,-   ,-   ,-   ,-   
2G,RWP7372,ISB007,RWP7372__T_GreenValley_Hypermart,Huawei,RAWALPINDI,Huawei,Bronze,Bronze,Micro,North,Mobiserve,R1,11.0,N1-RWP-01,33.5267,73.0969,2G/LTE,CP Prime,Indoor,Genset not Installed,JAZZ,,,749,Non Fixed,Non Switch,-   ,-   ,-   ,-   
2G,RWP7324,ISB007,RWP7324__S_AttockHouse,Huawei,RAWALPINDI,Huawei,Bronze,Bronze,Micro,North,Mobiserve,R1,11.0,N1-RWP-01,33.5609,73.0793,2G,CP Prime,Indoor,Genset not Installed,JAZZ,,,685,Non Fixed,Non Switch,-   ,-   ,-   ,-   
2G,RUR5589,PSH002,RUR5589_H_Near Arbab s CNG Warsak RdArbabSabzAli Khan T,Huawei,PESHAWAR,Huawei,Diamond,Diamond,Macro,North,HNL,R2,18.0,N2-PSH-02,34.04068,71.52621,2G/LTE,CP Prime,Outdoor,Genset not Installed,E.Co,,,607,Non Fixed,Non Switch,-   ,-   ,-   ,-   
2G,ORM5577,PSH002,ORM5577_H_Near Masjid fateh khel Urmar Miana Peshawar,Huawei,PESHAWAR,Huawei,Gold,Gold,Macro,North,HNL,R1,18.0,N2-PSH-01,33.95845,71.70708,2G/LTE,CP Prime,Outdoor,Genset not Installed,Enfrashare,,,2216,Non Fixed,Non Switch,-   ,-   ,-   ,-   
2G,PSH5567,PSH002,PSH5567_H_Qissa Khawani Peshawar,Huawei,PESHAWAR,Huawei,Bronze,Bronze,Macro,North,HNL,R1,18.0,N2-PSH-01,34.00073,71.56345,2G/LTE,CP Prime,Outdoor,Genset not Installed,Enfrashare,,,3069,Non Fixed,Non Switch,-   ,-   ,-   ,-   
2G,PSH5607,PSH002,PSH5607_HGarhi Qamar Din Near Malik Oil Change Peshawar,Huawei,PESHAWAR,Huawei,Diamond,Diamond,Macro,North,HNL,R1,18.0,N2-PSH-01,33.98379,71.57498,2G/LTE,Standby,Outdoor,Genset Installed,ATL,,,602,Non Fixed,Non Switch,-   ,-   ,-   ,-   
2G,PSH5774,PSH002,PSH5774_H_Abdarra Peshawar,Huawei,PESHAWAR,Huawei,Gold,Gold,Macro,North,HNL,R1,18.0,N2-PSH-01,33.96831,71.50338,2G/LTE,Standby,Outdoor,Genset Installed,E.Co,,,782,Non Fixed,Non Switch,-   ,-   ,-   ,-   
2G,PSH5762,PSH002,PSH5762_H_Warisabad Service Rd Madina Town Peshawar,Huawei,PESHAWAR,Huawei,Diamond,Diamond,Macro,North,HNL,R1,18.0,N2-PSH-01,34.0178,71.61941,2G/LTE,Standby,Outdoor,Genset Installed,E.Co,,,603,Non Fixed,Non Switch,-   ,-   ,-   ,-   
2G,PSH5593,PSH002,PSH5593_H_near Masjid Nawab Rasheed Peer Road,Huawei,PESHAWAR,Huawei,Bronze,Bronze,Macro,North,HNL,R1,18.0,N2-PSH-01,33.9873,71.562,2G/LTE,Standby,Outdoor,Genset Installed,Jazz Guest/CM-PAK Host,,,602,Non Fixed,Non Switch,-   ,-   ,-   ,-   
2G,PSH5583,PSH002,PSH5583_H_Shaheen Muslim Town Peshawar,Huawei,PESHAWAR,Huawei,Diamond,Diamond,Macro,North,HNL,R1,18.0,N2-PSH-01,33.99683,71.60024,2G/LTE,Standby,Outdoor,Genset Installed,Jazz Guest/CM-PAK Host,,,783,Non Fixed,Non Switch,-   ,-   ,-   ,-   
2G,PSH5766,PSH002,PSH5766_H_Dalazak Rd Abdul Raheema Peshawar,Huawei,PESHAWAR,Huawei,Gold,Gold,Macro,North,HNL,R2,18.0,N2-PSH-02,34.04223,71.62218,2G/LTE,Standby,Outdoor,Genset Installed,E.Co,,,2242,Non Fixed,Non Switch,-   ,-   ,-   ,-   
2G,PSH5686,PSH002,PSH5686_H_Dalazak Wadpagga Peshawar,Huawei,PESHAWAR,Huawei,Diamond,Diamond,Macro,North,HNL,R2,18.0,N2-PSH-02,34.050291,71.640816,2G/LTE,Standby,Outdoor,Genset Installed,Enfrashare,,,2242,Non Fixed,Non Switch,-   ,-   ,-   ,-   
2G,PSH5681,PSH002,PSH5681_H_Hazrat Jan Rd Larama Landi Sarak,Huawei,PESHAWAR,Huawei,Diamond,Diamond,Macro,North,HNL,R2,18.0,N2-PSH-02,34.0494,71.5645,2G/LTE,Standby,Outdoor,Genset Installed,Enfrashare,,,2242,Non Fixed,Non Switch,-   ,-   ,-   ,-   
2G,PSH5682,PSH002,PSH5682_H_Palosi Talarzai -Tahkal Rd Palosi,Huawei,PESHAWAR,Huawei,Gold,Gold,Macro,North,HNL,R2,18.0,N2-PSH-02,34.02716,71.49001,2G/LTE,Standby,Outdoor,Genset Installed,Enfrashare,,,601,Non Fixed,Non Switch,-   ,-   ,-   ,-   
2G,PSH5683,PSH003,PSH5683_H_Jamrud Rd - Bara Rd link Phase 7,Huawei,PESHAWAR,Huawei,Diamond,Diamond,Macro,North,HNL,R2,18.0,N2-PSH-02,33.97268,71.41497,2G/LTE,Standby,Outdoor,Genset Installed,Enfrashare,,,1804,Non Fixed,Non Switch,-   ,-   ,-   ,-   
2G,PSH5685,PSH002,PSH5685_H_Near ICHS University S Canal Rd Abdarra,Huawei,PESHAWAR,Huawei,Bronze,Bronze,Macro,North,HNL,R1,18.0,N2-PSH-01,33.97953,71.50042,2G/LTE,Standby,Outdoor,Genset Installed,Enfrashare,,,1804,Non Fixed,Non Switch,-   ,-   ,-   ,-   
2G,PSH5688,PSH003,PSH5688_H_Shalober Achini Payan Peshawar,Huawei,PESHAWAR,Huawei,Bronze,Bronze,Macro,North,HNL,R1,18.0,N2-PSH-02,33.95333,71.456201,2G/LTE,Standby,Outdoor,Genset Installed,Enfrashare,,,782,Non Fixed,Non Switch,-   ,-   ,-   ,-   
2G,PSH5769,PSH002,PSH5769_H_Canal Rd Doran Pur,Huawei,PESHAWAR,Huawei,Bronze,Bronze,Macro,North,HNL,R2,18.0,N2-PSH-02,34.02551,71.62989,2G/LTE,Standby,Outdoor,Genset Installed,Enfrashare,,,603,Non Fixed,Non Switch,-   ,-   ,-   ,-   
2G,PSH5698,PSH002,PSH5698_H_Ghafour abad Dir colony Peshawar,Huawei,PESHAWAR,Huawei,Diamond,Diamond,Macro,North,HNL,R1,18.0,N2-PSH-01,33.98566,71.58737,2G/LTE,Standby,Outdoor,Genset Installed,Enfrashare,,,602,Non Fixed,Non Switch,-   ,-   ,-   ,-   
2G,PSH5592,PSH002,PSH5592_H_Abdul Wahab Rd Khanmast Colony,Huawei,PESHAWAR,Huawei,Diamond,Diamond,Macro,North,HNL,R1,18.0,N2-PSH-01,33.99979,71.58437,2G/LTE,Standby,Outdoor,Genset Installed,Enfrashare,,,783,Non Fixed,Non Switch,-   ,-   ,-   ,-   
2G,PSH5598,PSH002,PSH5598_H_Achini Rd Noudeh Bala Peshawar,Huawei,PESHAWAR,Huawei,Gold,Gold,Macro,North,HNL,R1,18.0,N2-PSH-01,33.98401,71.48317,2G/LTE,Standby,Outdoor,Genset Installed,Enfrashare,,,1804,Non Fixed,Non Switch,-   ,-   ,-   ,-   
2G,PSH5696,PSH002,PSH5696_H_Chamkani Peshawar,Huawei,PESHAWAR,Huawei,Gold,Gold,Macro,North,HNL,R1,18.0,N2-PSH-01,34.01288,71.63769,2G/LTE,Standby,Outdoor,Genset Installed,Enfrashare,,,603,Non Fixed,Non Switch,-   ,-   ,-   ,-   
2G,PSH5587,PSH002,PSH5587_H_Garhi Qamar Din Peshawar,Huawei,PESHAWAR,Huawei,Diamond,Diamond,Macro,North,HNL,R1,18.0,N2-PSH-01,33.981154,71.580665,2G/LTE,Standby,Outdoor,Genset Installed,Enfrashare,,,602,Non Fixed,Non Switch,-   ,-   ,-   ,-   
2G,PSH5692,PSH002,PSH5692_H_Tahkal Payan Peshawar,Huawei,PESHAWAR,Huawei,Gold,Gold,Macro,North,HNL,R2,18.0,N2-PSH-02,34.029987,71.542182,2G/LTE,Standby,Outdoor,Genset Installed,Enfrashare,,,607,Non Fixed,Non Switch,-   ,-   ,-   ,-   
2G,PSH5590,PSH002,PSH5590_H_Hazara Khawani Peshawar,Huawei,PESHAWAR,Huawei,Bronze,Bronze,Macro,North,HNL,R1,18.0,N2-PSH-01,33.99907,71.59356,2G/LTE,Standby,Outdoor,Genset Installed,Jazz Guest/CM-PAK Host,,,,Non Fixed,Non Switch,-   ,-   ,-   ,-   
2G,RUR3559,LHR005,RUR3559__H_PattokiChunianRd,Huawei,CHUNIAN,Huawei,Diamond,Diamond,Macro,Central A,Huawei,R1,3.0,C2-NNK-05,30.9976,73.9086,2G/LTE,Standby,Outdoor,Genset Installed,JAZZ,,,606,Non Fixed,Non Switch,-   ,-   ,-   ,-   
2G,RUR3560,LHR005,RUR3560__H_Halla,Huawei,PATTOKI,Huawei,Hub,Hub,Macro,Central A,Huawei,R1,2.0,C2-NNK-05,31.1193,73.7288,2G/LTE,Standby,Outdoor,Genset Installed,JAZZ,,,3096,Fixed Site,Non Switch,1,-   ,-   ,1
2G,RUR8899,LHR005,RUR8899__S_Dholan,Huawei,PATTOKI,Huawei,Diamond,Diamond,Macro,Central A,Huawei,R1,3.0,C2-NNK-05,31.0018,73.7379,2G/LTE,Standby,Outdoor,Genset Installed,Jazz Host/CM-PAK Guest,,,3087,Non Fixed,Non Switch,-   ,-   ,-   ,-   
2G,RUR9200,LHR011,RUR9200__P_lokiVillage,Huawei,PHOOL NAGAR,Huawei,Platinum,Platinum,Macro,Central A,Huawei,R1,2.0,C2-NNK-05,31.1909,73.8758,2G/LTE,CP Prime,Outdoor,Genset not Installed,Jazz Guest/UFONE Host,,,1850,Non Fixed,Non Switch,-   ,-   ,-   ,-   
2G,RUR9605,LHR005,RUR9605__S_DinPurDoba_Near Hameed Textiles,Huawei,PATTOKI,Huawei,Diamond,Diamond,Macro,Central A,Huawei,R1,2.0,C2-NNK-05,31.0556,73.9155,2G/LTE,Standby,Outdoor,Genset Installed,JAZZ,,,607,Non Fixed,Non Switch,-   ,-   ,-   ,-   
2G,RUR5593,LHR011,RUR5593__S_Jalleke,Huawei,PHOOL NAGAR,Huawei,Diamond,Diamond,Macro,Central A,Huawei,R1,3.0,C2-NNK-05,31.16649,73.94907,2G/LTE,DC Shared,Outdoor,Genset not Installed,Enfrashare,,,1850,Non Fixed,Non Switch,-   ,-   ,-   ,-   
2G,RUR5601,LHR011,RUR5601__S_Aunkh,Huawei,PHOOL NAGAR,Huawei,Diamond,Diamond,Macro,Central A,Huawei,R1,3.0,C2-NNK-05,31.202964,73.900739,2G/LTE,DC Shared,Outdoor,Genset not Installed,Enfrashare,,,1850,Non Fixed,Non Switch,-   ,-   ,-   ,-   
2G,RUR5781,LHR005,RUR5781__S_Chak4Jagoowala,Huawei,PATTOKI,Huawei,Diamond,Diamond,Macro,Central A,Huawei,R1,3.0,C2-NNK-05,30.99843,73.8742,2G/LTE,DC Shared,Outdoor,Genset not Installed,Enfrashare,,,606,Non Fixed,Non Switch,-   ,-   ,-   ,-   
2G,PTT5802,LHR005,PTT5802__S_AsifColony,Huawei,PATTOKI,Huawei,Elite,Elite,Macro,Central A,Huawei,R1,3.0,C2-NNK-05,31.02552,73.84818,2G/LTE,DC Shared,Outdoor,Genset not Installed,Enfrashare,,,607,Non Fixed,Non Switch,-   ,-   ,-   ,-   
2G,HWY6127,LHR005,HWY6127__S_TehsilCourtsPattoki,Huawei,PATTOKI,Huawei,Elite,Elite,Macro,Central A,Huawei,R1,2.0,C2-NNK-05,31.066958,73.873775,2G/LTE,DC Shared,Outdoor,Genset not Installed,Enfrashare,,,606,Non Fixed,Non Switch,-   ,-   ,-   ,-   
2G,HWY2671,FSD333,HWY2671__S_Kot Bahader,ZTE,JHANG,ZTE,Platinum,Platinum,Macro,Central B,Mobiserve,R2,23.0,C5-JHG-06,30.979397,71.954494,2G/LTE,DC Shared,Outdoor,Genset not Installed,Enfrashare,,,2397,Non Fixed,Non Switch,-   ,-   ,-   ,-   
2G,RUR6674,LHR011,RUR6674__S_KanwenMallian,Huawei,RAIWIND,Huawei,Platinum,Platinum,Macro,Central A,Huawei,R1,28.0,C2-RWD-01,31.166852,74.028588,2G/LTE,DC Shared,Outdoor,Genset not Installed,Enfrashare,,,3107,Non Fixed,Non Switch,-   ,-   ,-   ,-   
2G,RUR6676,LHR012,RUR6676__S_DinaNath,Huawei,PHOOL NAGAR,Huawei,Platinum,Platinum,Macro,Central A,Huawei,R1,3.0,C2-NNK-05,31.24402,74.018391,2G/LTE,DC Shared,Outdoor,Genset not Installed,Enfrashare,,,770,Non Fixed,Non Switch,-   ,-   ,-   ,-   
3G,MRE3889,ISB221,UMRE3889__S_Sky_Lark_Hotel warid_MDME3276,Huawei,MURREE,Huawei OMC,General,General,Macro,North,Mobiserve,R1,15.0,N1-ISB-04,33.9058,73.3886,2G/3G/LTE,Standby,Outdoor,Genset Installed,JAZZ,No,,313,Fixed Site,Non Switch,1,-   ,-   ,1
2G,RUR6654,LHR011,RUR6654_S_GulzarJageer,Huawei,PHOOL NAGAR,Huawei,Diamond,Diamond,Macro,Central A,Huawei,R1,3.0,C2-NNK-05,31.2237,73.926601,2G/LTE,DC Shared,Outdoor,Genset not Installed,Enfrashare,,,1850,Non Fixed,Non Switch,-   ,-   ,-   ,-   
2G,RUR6713,LHR005,RUR6713__S_KaniWairen_CMPak41969,Huawei,PATTOKI,Huawei,Gold,Gold,Macro,Central A,Huawei,R1,3.0,C2-NNK-05,31.01141,73.79772,2G/LTE,CP Prime,Outdoor,Genset not Installed,Jazz Guest/CM-PAK Host,,,606,Non Fixed,Non Switch,-   ,-   ,-   ,-   
2G,PTN2493,ISB008,PTN2493__S_Pattan1,Huawei,KOHISTAN,Huawei,Hub,Hub,Macro,North,HNL,R1,16.0,N3-GLT-04,35.1126,73.0055,2G/LTE,Standby,Outdoor,Genset Installed,JAZZ,,,2208,Fixed Site,Non Switch,1,-   ,-   ,1
2G,PYN7097,HYD343,PYN7097__S_Patoyoun,ZTE,TANDO ADAM,ZTE,Bronze,Bronze,Macro,South,MES,R2,34.0,S2-MPK-03,25.7394,68.9543,2G/LTE,Standby,Outdoor,Genset Installed,JAZZ,,,2401,Non Fixed,Non Switch,-   ,-   ,-   ,-   
2G,HGW6928,SUK342,HGW6928__S_GOTH DERA WAHAN SHAHEED - UFONE,ZTE,KHAIRPUR,ZTE,Bronze,Bronze,Macro,South,HNL,R2,29.0,S3-GTK-05,27.5124,68.858,2G/LTE,CP Prime,Outdoor,Genset not Installed,Jazz Guest/UFONE Host,,,,Non Fixed,Non Switch,-   ,-   ,-   ,-   
2G,HGW7161,SUK342,HGW7161__S_Zaraat Camp,ZTE,SALEH PAT,ZTE,Bronze,Bronze,Micro,South,HNL,R2,29.0,S3-GTK-05,27.5637,69.3916,2G/LTE,CP Prime,Outdoor,Genset not Installed,JAZZ,,,2540,Non Fixed,Non Switch,-   ,-   ,-   ,-   
2G,PAT1159,SUK342,PAT1159__S_Kandhra warid_MDSU6779,ZTE,KHAIRPUR,ZTE,Platinum,Platinum,Macro,South,HNL,R2,32.0,S3-GTK-05,27.5833,68.8629,2G/LTE,Standby,Outdoor,Genset Installed,JAZZ,,,2464,Non Fixed,Non Switch,-   ,-   ,-   ,-   
2G,PAT6657,SUK342,PAT6657__S_Goth_Bux_Katpar,ZTE,KHAIRPUR,ZTE,Bronze,Bronze,Macro,South,HNL,R2,32.0,S3-GTK-05,27.5612,68.9093,2G/LTE,Standby,Outdoor,Genset Installed,JAZZ,,,2464,Non Fixed,Non Switch,-   ,-   ,-   ,-   
2G,RUR6578,SKT002,RUR6578__S_Gadgore,Huawei,SIALKOT,Huawei,Platinum,Platinum,Macro,Central A,Huawei,R1,7.0,C4-NRW-05,32.395937,74.754938,2G/LTE,CP Prime,Outdoor,Genset not Installed,Enfrashare,,,719,Non Fixed,Non Switch,-   ,-   ,-   ,-   
2G,HWY3266,SKT002,HWY3266__S_KaliSubha,Huawei,GUJRANWALA,Huawei,Diamond,Diamond,Macro,Central A,Huawei,R1,7.0,C4-GUJ-01,32.0559,74.5552,2G/LTE,CP Prime,Outdoor,Genset not Installed,Jazz Host/CM-PAK Guest,,,3122,Fixed Site,Non Switch,1,-   ,-   ,1
2G,RUR0245,PKP054,RUR0245__S_Chak#32SP,Huawei,PAKPATTAN,Huawei,Diamond,Diamond,Macro,Central A,HNL,R1,1.0,C3-PKT-02,30.3827,73.3117,2G/LTE,Standby,Outdoor,Genset Installed,JAZZ,,,601,Non Fixed,Non Switch,-   ,-   ,-   ,-   
2G,RUR0246,PKP054,RUR0246__S_Chak#36SP,Huawei,PAKPATTAN,Huawei,Diamond,Diamond,Macro,Central A,HNL,R1,1.0,C3-PKT-02,30.358,73.3347,2G/LTE,Standby,Outdoor,Genset Installed,Jazz Host/TELENOR+CM-PAK Guest,,,601,Non Fixed,Non Switch,-   ,-   ,-   ,-   
2G,RUR0252,MUL327,RUR0252__S_Chak88EB,ZTE,ARIFWALA,ZTE,Platinum,Platinum,Macro,Central A,HNL,R1,25.0,C3-SWL-01,30.3702,72.8532,2G/LTE,Standby,Outdoor,Genset Installed,Jazz Host/TELENOR Guest,,,2994,Non Fixed,Non Switch,-   ,-   ,-   ,-   
2G,RUR0315,SHW002,RUR0315__S_ChowkSikandar,Huawei,PAKPATTAN,Huawei,Elite,Elite,Macro,Central A,HNL,R1,1.0,C3-PKT-02,30.5344,73.4321,2G/LTE,Standby,Outdoor,Genset Installed,JAZZ,,,3104,Non Fixed,Non Switch,-   ,-   ,-   ,-   
2G,RUR0325,BHP350,RUR0325__S_Chak 57EB,ZTE,ARIFWALA,ZTE,Platinum,Platinum,Macro,Central A,HNL,R1,25.0,C3-SWL-01,30.3205,73.1007,2G/LTE,CP Prime,Outdoor,Genset not Installed,Jazz Host/CM-PAK Guest,,,2553,Non Fixed,Non Switch,-   ,-   ,-   ,-   
2G,RUR0335,PKP054,RUR0335__S_FerozpurChishtian,Huawei,PAKPATTAN,Huawei,Bronze,Bronze,Macro,Central A,HNL,R1,25.0,C3-PKT-02,30.2172,73.2839,2G/LTE,Standby,Outdoor,Genset Installed,JAZZ,,,600,Non Fixed,Non Switch,-   ,-   ,-   ,-   
2G,RUR0389,PKP054,RUR0389__S_Chak17SP,Huawei,PAKPATTAN,Huawei,Diamond,Diamond,Macro,Central A,HNL,R1,1.0,C3-PKT-02,30.4018,73.4256,2G/LTE,Standby,Outdoor,Genset Installed,Jazz Host/CM-PAK Guest,,,3103,Non Fixed,Non Switch,-   ,-   ,-   ,-   
2G,RUR0581,PKP054,RUR0581__S_Chak19SP,Huawei,PAKPATTAN,Huawei,Elite,Elite,Macro,Central A,HNL,R1,1.0,C3-PKT-02,30.3776,73.3769,2G/LTE,Standby,Outdoor,Genset Installed,Jazz Host/TELENOR Guest,,,601,Non Fixed,Non Switch,-   ,-   ,-   ,-   
2G,RUR0582,PKP054,RUR0582__S_ShamGarh,Huawei,PAKPATTAN,Huawei,Diamond,Diamond,Macro,Central A,HNL,R1,1.0,C3-PKT-02,30.459,73.4472,2G/LTE,Standby,Outdoor,Genset Installed,JAZZ,,,3103,Non Fixed,Non Switch,-   ,-   ,-   ,-   
2G,RUR0583,PKP054,RUR0583__S_ChakSeithanwala,Huawei,PAKPATTAN,Huawei,Diamond,Diamond,Macro,Central A,HNL,R1,1.0,C3-PKT-02,30.4095,73.3544,2G/LTE,Standby,Outdoor,Genset Installed,JAZZ,,,601,Non Fixed,Non Switch,-   ,-   ,-   ,-   
2G,RUR0591,PKP054,RUR0591__S_Chak#3EB_UP,Huawei,PAKPATTAN,Huawei,Bronze,Bronze,Macro,Central A,HNL,R1,25.0,C3-SWL-01,30.3141,73.2043,2G/LTE,CP Prime,Outdoor,Genset not Installed,Enfrashare,,,600,Non Fixed,Non Switch,-   ,-   ,-   ,-   
2G,RUR0593,PKP054,RUR0593__S_Chak21EB,Huawei,PAKPATTAN,Huawei,Diamond,Diamond,Macro,Central A,HNL,R1,1.0,C3-SWL-01,30.284,73.1263,2G/LTE,Standby,Outdoor,Genset Installed,JAZZ,,,600,Non Fixed,Non Switch,-   ,-   ,-   ,-   
2G,RUR0595,MUL327,RUR0595__S_chak 62 EB,ZTE,ARIFWALA,ZTE,Diamond,Diamond,Macro,Central A,HNL,R1,25.0,C3-SWL-01,30.4002,72.9414,2G/LTE,CP Prime,Outdoor,Genset not Installed,Enfrashare,,,2994,Non Fixed,Non Switch,-   ,-   ,-   ,-   
2G,MUL2222,MUL320,MUL2222__P_Aliwala,ZTE,MULTAN,ZTE,Platinum,Platinum,Macro,Central B,HNL,R2,24.0,C6-MUL-08,30.0968,71.3664,2G/LTE,Standby,Outdoor,Genset Installed,Jazz Host/CM-PAK+TELENOR Guest,,,7,Non Fixed,Non Switch,-   ,-   ,-   ,-   
2G,RUR2244,MUL324,RUR2244__S_Taatay Pur Road,ZTE,MULTAN,ZTE,Platinum,Platinum,Macro,Central B,HNL,R2,24.0,C6-MUL-06,30.219,71.5981,2G/LTE,Standby,Outdoor,Genset Installed,JAZZ,,,2760,Non Fixed,Non Switch,-   ,-   ,-   ,-   
2G,MUL2233,MUL324,MUL2233__H_Basti Bilalpur,ZTE,MULTAN,ZTE,Platinum,Platinum,Macro,Central B,HNL,R2,24.0,C6-MUL-06,30.1789,71.5663,2G/LTE,Standby,Outdoor,Genset Installed,JAZZ,,,7,Non Fixed,Non Switch,-   ,-   ,-   ,-   
2G,HWY0091,MUL324,HWY0091__H_HAQANI COLONY,ZTE,MULTAN,ZTE,Hub,Hub,Macro,Central B,HNL,R2,24.0,C6-MUL-06,30.0889,71.6514,2G/LTE,Standby,Outdoor,Genset Installed,Jazz Host/CM-PAK Guest,,,608,Fixed Site,Non Switch,1,-   ,-   ,1
2G,HWY1311,MUL324,HWY1311__S_KhooAliWala,ZTE,MULTAN,ZTE,Gold,Gold,Macro,Central B,HNL,R2,24.0,C6-MUL-06,30.2593,71.6611,2G/LTE,Standby,Outdoor,Genset Installed,JAZZ,,,2801,Non Fixed,Non Switch,-   ,-   ,-   ,-   
2G,HWY1308,MUL320,HWY1308__S_Basti Ghannay Wala Khooh,ZTE,MULTAN,ZTE,Diamond,Diamond,Macro,Central B,HNL,R2,24.0,C6-MUL-08,30.0655,71.3461,2G/LTE,Standby,Outdoor,Genset Installed,JAZZ,,,2792,Non Fixed,Non Switch,-   ,-   ,-   ,-   
2G,RUR1395,MUL323,RUR1395__S_Adda Laar,ZTE,MULTAN,ZTE,Platinum,Platinum,Macro,Central B,HNL,R2,24.0,C6-MUL-06,29.9859,71.5391,2G/LTE,Standby,Outdoor,Genset Installed,JAZZ,,,2643,Non Fixed,Non Switch,-   ,-   ,-   ,-   
2G,HWY1309,MUL320,HWY1309__P_Basti Rasool Pura,ZTE,MULTAN,ZTE,Diamond,Diamond,Macro,Central B,HNL,R2,24.0,C6-MUL-06,30.0521,71.4358,2G/LTE,Standby,Outdoor,Genset Installed,JAZZ,,,2792,Non Fixed,Non Switch,-   ,-   ,-   ,-   
2G,RUR1466,MUL322,RUR1466__S_LAKWAL,ZTE,MULTAN,ZTE,Diamond,Diamond,Macro,Central B,HNL,R2,24.0,C6-MUL-07,30.3392,71.4671,2G/LTE,Standby,Outdoor,Genset Installed,JAZZ,,,2664,Non Fixed,Non Switch,-   ,-   ,-   ,-   
2G,HWY2105,MUL323,HWY2105__S_Basti Lar,ZTE,MULTAN,ZTE,Diamond,Diamond,Macro,Central B,HNL,R2,24.0,C6-MUL-06,30.009,71.5006,2G/LTE,Standby,Outdoor,Genset Installed,JAZZ,,,2643,Non Fixed,Non Switch,-   ,-   ,-   ,-   
2G,MUL3360,MUL324,MUL3360__S_Mohalla Hassan Abad,ZTE,MULTAN,ZTE,Elite,Elite,Macro,Central B,HNL,R2,24.0,C6-MUL-07,30.209,71.5216,2G/LTE,Standby,Outdoor,Genset Installed,JAZZ,,,7,Non Fixed,Non Switch,-   ,-   ,-   ,-   
2G,MUL7774,MUL322,MUL7774__P_Near Bahadur Pur,ZTE,MULTAN,ZTE,Hub,Hub,Macro,Central B,HNL,R2,24.0,C6-MUL-07,30.2569,71.4879,2G/LTE,Standby,Outdoor,Genset Installed,JAZZ,,,2664,Non Fixed,Non Switch,-   ,-   ,-   ,-   
2G,RUR4035,MUL320,RUR4035__S_Near QasbaMaral,ZTE,MULTAN,ZTE,Diamond,Diamond,Macro,Central B,HNL,R2,24.0,C6-MUL-06,29.9788,71.3895,2G/LTE,Standby,Outdoor,Genset Installed,JAZZ,,,2792,Non Fixed,Non Switch,-   ,-   ,-   ,-   
2G,HWY2199,MUL323,HWY2199__S_Adda 5 Faiz,ZTE,MULTAN,ZTE,Platinum,Platinum,Macro,Central B,HNL,R2,24.0,C6-MUL-06,29.96503,71.50773,2G/LTE,DC Shared,Outdoor,Genset not Installed,Jazz Guest/UFONE Host,,,2643,Non Fixed,Non Switch,-   ,-   ,-   ,-   
2G,HWY2374,MUL325,HWY2374__S_DHA Gate,ZTE,MULTAN,ZTE,Gold,Gold,Macro,Central B,HNL,R2,24.0,C6-MUL-06,30.28103,71.59848,2G/LTE,DC Shared,Outdoor,Genset not Installed,E.Co,,,2769,Non Fixed,Non Switch,-   ,-   ,-   ,-   
2G,RUR2358,MUL324,RUR2358__S_Qaswar,ZTE,MULTAN,ZTE,Diamond,Diamond,Macro,Central B,HNL,R2,24.0,C6-MUL-06,30.13191,71.7326,2G/LTE,DC Shared,Outdoor,Genset not Installed,E.Co,,,608,Non Fixed,Non Switch,-   ,-   ,-   ,-   
2G,MUL2173,MUL323,MUL2173__S_Daira Basti?,ZTE,MULTAN,ZTE,Platinum,Platinum,Macro,Central B,HNL,R2,26.0,C6-MUL-08,30.18349,71.45712,2G/LTE,DC Shared,Outdoor,Genset not Installed,Enfrashare,,,7,Non Fixed,Non Switch,-   ,-   ,-   ,-   
2G,MUL2352,MUL323,MUL2352__S_Multan southern bypass,ZTE,MULTAN,ZTE,Platinum,Platinum,Macro,Central B,HNL,R2,24.0,C6-MUL-06,30.1238,71.449714,2G/LTE,DC Shared,Outdoor,Genset not Installed,E.Co,,,7,Non Fixed,Non Switch,-   ,-   ,-   ,-   
2G,MUL2534,MUL322,MUL2534,ZTE,MULTAN,ZTE,Elite,Elite,Macro,Central B,HNL,R2,24.0,C6-MUL-07,30.232644,71.520976,2G/LTE,DC Shared,Outdoor,Genset not Installed,E.Co,,,7,Non Fixed,Non Switch,-   ,-   ,-   ,-   
2G,RUR2482,MUL320,RUR2482__S_Sukha BHP,ZTE,MULTAN,ZTE,Diamond,Diamond,Macro,Central B,HNL,R2,24.0,C6-MUL-06,30.073823,71.440115,2G/LTE,DC Shared,Outdoor,Genset not Installed,Enfrashare,,,2792,Non Fixed,Non Switch,-   ,-   ,-   ,-   
2G,MUL2452,MUL322,"MUL2452__S_Basti Kapper, Mattital Road Multan",ZTE,MULTAN,ZTE,Elite,Elite,Macro,Central B,HNL,R2,24.0,C6-MUL-06,30.24779,71.56515,2G/LTE,DC Shared,Outdoor,Genset not Installed,E.Co,,,7,Non Fixed,Non Switch,-   ,-   ,-   ,-   
2G,MUL2483,MUL322,MUL2483__S_Basti Nihal,ZTE,MULTAN,ZTE,Elite,Elite,Macro,Central B,HNL,R2,24.0,C6-MUL-07,30.29848,71.505186,2G/LTE,DC Shared,Outdoor,Genset not Installed,E.Co,,,7,Non Fixed,Non Switch,-   ,-   ,-   ,-   
2G,RUR2359,BHP318,RUR2359__S_Basti sabara,ZTE,MULTAN,ZTE,Gold,Gold,Macro,Central B,HNL,R2,28.0,C7-BWP-04,29.51221,71.35794,2G/LTE,DC Shared,Outdoor,Genset not Installed,E.Co,,,2912,Non Fixed,Non Switch,-   ,-   ,-   ,-   
2G,MUL7875,MUL322,MUL7875,ZTE,MULTAN,ZTE,Platinum,Platinum,Macro,Central B,HNL,R2,24.0,C6-MUL-07,30.262927,71.480015,2G/LTE,DC Shared,Outdoor,Genset not Installed,Enfrashare,,,7,Non Fixed,Non Switch,-   ,-   ,-   ,-   
2G,MUL1654,MUL322,MUL1654_S_Agrics Town Multan,ZTE,MULTAN,ZTE,Platinum,Platinum,Macro,Central B,HNL,R2,24.0,C6-MUL-07,30.24864,71.50417,2G/LTE,DC Shared,Outdoor,Genset not Installed,E.Co,,,7,Non Fixed,Non Switch,-   ,-   ,-   ,-   
2G,MUL2399,MUL323,MUL2399__S_Qasim colony Multan,ZTE,MULTAN,ZTE,Diamond,Diamond,Macro,Central B,HNL,R2,24.0,C6-MUL-06,30.16619,71.49164,2G/LTE,DC Shared,Outdoor,Genset not Installed,Jazz Guest/CM-PAK Host,,,7,Non Fixed,Non Switch,-   ,-   ,-   ,-   
2G,MUL2750,MUL323,MUL2750__S_Peoples colony Multan,ZTE,MULTAN,ZTE,Diamond,Diamond,Macro,Central B,HNL,R2,24.0,C6-MUL-06,30.1785,71.4985,2G/LTE,DC Shared,Outdoor,Genset not Installed,Jazz Guest/TELENOR Host,,,7,Non Fixed,Non Switch,-   ,-   ,-   ,-   
2G,MUL1663,MUL324,MUL1663,ZTE,MULTAN,ZTE,Elite,Elite,Macro,Central B,HNL,R2,24.0,C6-MUL-06,30.20005,71.55397,2G/LTE,DC Shared,Outdoor,Genset not Installed,E.Co,,,3327,Non Fixed,Non Switch,-   ,-   ,-   ,-   
2G,MUL1668,MUL324,MUL1668,ZTE,MULTAN,ZTE,Diamond,Diamond,Macro,Central B,HNL,R2,24.0,C6-MUL-06,30.17843,71.54792,2G/LTE,DC Shared,Outdoor,Genset not Installed,E.Co,,,3327,Non Fixed,Non Switch,-   ,-   ,-   ,-   
2G,MUL1611,MUL322,MUL1611,ZTE,MULTAN,ZTE,Gold,Gold,Macro,Central B,HNL,R2,24.0,C6-MUL-07,30.2797,71.5079,2G/LTE,DC Shared,Outdoor,Genset not Installed,Enfrashare,,,7,Non Fixed,Non Switch,-   ,-   ,-   ,-   
2G,MUL2086,MUL322,MUL2086,ZTE,MULTAN,ZTE,Diamond,Diamond,Macro,Central B,HNL,R2,24.0,C6-MUL-08,30.239026,71.448375,2G/LTE,DC Shared,Outdoor,Genset not Installed,Enfrashare,,,2664,Non Fixed,Non Switch,-   ,-   ,-   ,-   
2G,MUL1672,MUL322,MUL1672,ZTE,MULTAN,ZTE,Platinum,Platinum,Macro,Central B,HNL,R2,24.0,C6-MUL-08,30.22925,71.45367,2G/LTE,DC Shared,Outdoor,Genset not Installed,E.Co,,,7,Non Fixed,Non Switch,-   ,-   ,-   ,-   
2G,MUL2453,MUL320,MUL2453,ZTE,MULTAN,ZTE,Elite,Elite,Macro,Central B,HNL,R2,24.0,C6-MUL-08,30.12954,71.38176,2G/LTE,DC Shared,Outdoor,Genset not Installed,E.Co,,,7,Non Fixed,Non Switch,-   ,-   ,-   ,-   
2G,MUL2781,MUL322,MUL2781,ZTE,MULTAN,ZTE,Elite,Elite,Macro,Central B,HNL,R2,24.0,C6-MUL-07,30.24029,71.50513,2G/LTE,DC Shared,Outdoor,Genset not Installed,E.Co,,,7,Non Fixed,Non Switch,-   ,-   ,-   ,-   
2G,HWY2445,BHP318,HWY2445__P_AddaChuttaWala_New,ZTE,MULTAN,ZTE,Platinum,Platinum,Macro,Central B,HNL,R2,27.0,C7-BWP-04,29.47256,71.3792,2G/LTE,CP Prime,Outdoor,Genset not Installed,Jazz Guest/TELENOR Host,,,1692,Non Fixed,Non Switch,-   ,-   ,-   ,-   
2G,MUL1669,MUL322,MUL1669,ZTE,MULTAN,ZTE,Platinum,Platinum,Macro,Central B,HNL,R2,24.0,C6-MUL-07,30.2467,71.46859,2G/LTE,DC Shared,Outdoor,Genset not Installed,E.Co,,,7,Non Fixed,Non Switch,-   ,-   ,-   ,-   
2G,MUL1769,MUL324,MUL1769__S_Alang Dehali Gate,ZTE,MULTAN,ZTE,Bronze,Bronze,Macro,Central B,HNL,R2,24.0,C6-MUL-07,30.19086,71.476122,2G/LTE,DC Shared,Outdoor,Genset not Installed,Enfrashare,,,7,Non Fixed,Non Switch,-   ,-   ,-   ,-   
2G,RUR2247,MUL320,RUR2247__S_Chadhar Rd EC2-MUL-02392,ZTE,MULTAN,ZTE,Gold,Gold,Macro,Central B,HNL,R2,24.0,C6-MUL-06,29.90314,71.41157,2G/LTE,DC Shared,Outdoor,Genset not Installed,Enfrashare,,,2621,Non Fixed,Non Switch,-   ,-   ,-   ,-   
2G,MUL2155,MUL322,MUL2155__S_NawabPur Rd,ZTE,MULTAN,ZTE,Platinum,Platinum,Macro,Central B,HNL,R2,24.0,C6-MUL-07,30.239137,71.46708,2G/LTE,DC Shared,Outdoor,Genset not Installed,Enfrashare,,,7,Non Fixed,Non Switch,-   ,-   ,-   ,-   
2G,MUL1767,MUL322,MUL1767__S_Gulshan e Wahid,ZTE,MULTAN,ZTE,Platinum,Platinum,Macro,Central B,HNL,R2,24.0,C6-MUL-07,30.24657,71.5149,2G/LTE,DC Shared,Outdoor,Genset not Installed,ATL,,,7,Non Fixed,Non Switch,-   ,-   ,-   ,-   
2G,MUL3186,MUL322,MUL3186__S_Nothern by pass Muhammad wala,ZTE,MULTAN,ZTE,Diamond,Diamond,Macro,Central B,HNL,R2,24.0,C6-MUL-07,30.24869,71.4468,2G/LTE,DC Shared,Outdoor,Genset not Installed,Enfrashare,,,656,Non Fixed,Non Switch,-   ,-   ,-   ,-   
2G,MUL3187,MUL322,MUL3187__S_Basti Saleh Mahay,ZTE,MULTAN,ZTE,Platinum,Platinum,Macro,Central B,HNL,R2,24.0,C6-MUL-07,30.278783,71.466148,2G/LTE,DC Shared,Outdoor,Genset not Installed,Enfrashare,,,2664,Non Fixed,Non Switch,-   ,-   ,-   ,-   
2G,MUL3180,MUL322,MUL3180__S_Waqas Town MUL,ZTE,MULTAN,ZTE,Diamond,Diamond,Macro,Central B,HNL,R2,24.0,C6-MUL-08,30.214756,71.434787,2G/LTE,DC Shared,Outdoor,Genset not Installed,Enfrashare,,,7,Non Fixed,Non Switch,-   ,-   ,-   ,-   
2G,MUL2392,MUL324,MUL2392__S_Block J 100 Feet road,ZTE,MULTAN,ZTE,Platinum,Platinum,Macro,Central B,HNL,R2,24.0,C6-MUL-07,30.189927,71.501965,2G/LTE,DC Shared,Outdoor,Genset not Installed,Enfrashare,,,7,Non Fixed,Non Switch,-   ,-   ,-   ,-   
2G,MUL3151,MUL323,MUL3151__S_Mumtazabad Colony,ZTE,MULTAN,ZTE,Elite,Elite,Macro,Central B,HNL,R2,24.0,C6-MUL-06,30.172923,71.486385,2G/LTE,DC Shared,Outdoor,Genset not Installed,Enfrashare,,,7,Non Fixed,Non Switch,-   ,-   ,-   ,-   
2G,MUL2327,MUL323,MUL2327__S_Shafqat Garden Housing Scheme,ZTE,MULTAN,ZTE,Diamond,Diamond,Macro,Central B,HNL,R2,24.0,C6-MUL-08,30.157719,71.455468,2G/LTE,DC Shared,Outdoor,Genset not Installed,Enfrashare,,,7,Non Fixed,Non Switch,-   ,-   ,-   ,-   
2G,RUR2306,MUL320,RUR2306__S_Basti Labar,ZTE,MULTAN,ZTE,Platinum,Platinum,Macro,Central B,HNL,R2,24.0,C6-MUL-06,30.053671,71.40547,2G/LTE,DC Shared,Outdoor,Genset not Installed,Enfrashare,,,2792,Non Fixed,Non Switch,-   ,-   ,-   ,-   
2G,MUL2293,MUL323,MUL2293__S_ Near Ayub stadium PIA Colony,ZTE,MULTAN,ZTE,Platinum,Platinum,Macro,Central B,HNL,R2,24.0,C6-MUL-08,30.19047,71.431,2G/LTE,DC Shared,Outdoor,Genset not Installed,Enfrashare,,,2803,Non Fixed,Non Switch,-   ,-   ,-   ,-   
2G,MUL1766,MUL323,MUL1766__S_Defence Officer Colony,ZTE,MULTAN,ZTE,Gold,Gold,Macro,Central B,HNL,R2,24.0,C6-MUL-08,30.170237,71.413055,2G/LTE,DC Shared,Outdoor,Genset not Installed,Enfrashare,,,2803,Non Fixed,Non Switch,-   ,-   ,-   ,-   
2G,MUL2676,MUL322,MUL2676__S_Sardar Chowk Basti Nau Rd,ZTE,MULTAN,ZTE,Diamond,Diamond,Macro,Central B,HNL,R2,24.0,C6-MUL-07,30.248541,71.475824,2G/LTE,DC Shared,Outdoor,Genset not Installed,Enfrashare,,,7,Non Fixed,Non Switch,-   ,-   ,-   ,-   
2G,RUR2310,MUL322,RUR2310__S_Abadi Adda Bosan,ZTE,MULTAN,ZTE,Diamond,Diamond,Macro,Central B,HNL,R2,24.0,C6-MUL-07,30.37736,71.54628,2G/LTE,DC Shared,Outdoor,Genset not Installed,Enfrashare,,,362,Non Fixed,Non Switch,-   ,-   ,-   ,-   
2G,RUR2552,MUL324,RUR2552__S_Jalalabad Shumali,ZTE,MULTAN,ZTE,Diamond,Diamond,Macro,Central B,HNL,R2,24.0,C6-MUL-06,30.1297,71.6392,2G/LTE,DC Shared,Outdoor,Genset not Installed,ATL,,,608,Non Fixed,Non Switch,-   ,-   ,-   ,-   
2G,RUR2068,MUL324,RUR2068__S_Chak 3T Colony,ZTE,MULTAN,ZTE,Diamond,Diamond,Macro,Central B,HNL,R2,24.0,C7-LOD-02,30.093194,71.731045,2G/LTE,DC Shared,Outdoor,Genset not Installed,Enfrashare,,,608,Non Fixed,Non Switch,-   ,-   ,-   ,-   
2G,MUL2294,MUL322,MUL2294__S_Jamilabad PIA Colony,ZTE,MULTAN,ZTE,Diamond,Diamond,Macro,Central B,HNL,R2,24.0,C6-MUL-08,30.20148,71.42663,2G/LTE,DC Shared,Outdoor,Genset not Installed,Enfrashare,,,2797,Non Fixed,Non Switch,-   ,-   ,-   ,-   
2G,RUR2168,MUL324,RUR2168__S_Chak 2MR,ZTE,MULTAN,ZTE,Platinum,Platinum,Macro,Central B,HNL,R2,28.0,C7-LOD-02,30.05995,71.69614,2G/LTE,DC Shared,Outdoor,Genset not Installed,Enfrashare,,,608,Non Fixed,Non Switch,-   ,-   ,-   ,-   
2G,MUL1919,MUL324,MUL1919__S_Gulshane Yousaf,ZTE,MULTAN,ZTE,Gold,Gold,Macro,Central B,HNL,R2,24.0,C6-MUL-06,30.172,71.5221,2G/LTE,DC Shared,Outdoor,Genset not Installed,Enfrashare,,,2795,Non Fixed,Non Switch,-   ,-   ,-   ,-   
2G,MUL3181,MUL322,MUL3181__S_Sewra chowk MUL,ZTE,MULTAN,ZTE,Diamond,Diamond,Macro,Central B,HNL,R2,24.0,C6-MUL-08,30.220424,71.443712,2G/LTE,CP Prime,Outdoor,Genset not Installed,Jazz Guest/CM-PAK Host,,,7,Non Fixed,Non Switch,-   ,-   ,-   ,-   
2G,MUL3182,MUL323,"MUL3182__S_Basti Allahabad, Multan",ZTE,MULTAN,ZTE,Platinum,Platinum,Macro,Central B,HNL,R2,24.0,C6-MUL-06,30.151134,71.494323,2G/LTE,CP Prime,Outdoor,Genset not Installed,Jazz Guest/CM-PAK Host,,,7,Non Fixed,Non Switch,-   ,-   ,-   ,-   
2G,MUL3077,MUL322,MUL3077__S_Shalimar Colony MUL,ZTE,MULTAN,ZTE,Platinum,Platinum,Macro,Central B,HNL,R2,24.0,C6-MUL-07,30.24091,71.49037,2G/LTE,DC Shared,Outdoor,Genset not Installed,ATL,,,7,Non Fixed,Non Switch,-   ,-   ,-   ,-   
2G,MUL1980,MUL323,MUL1980__S_Fatima Jinah Town MUL,ZTE,MULTAN,ZTE,Diamond,Diamond,Macro,Central B,HNL,R2,24.0,C6-MUL-06,30.144452,71.515001,2G/LTE,DC Shared,Outdoor,Genset not Installed,ATL,,,7,Non Fixed,Non Switch,-   ,-   ,-   ,-   
2G,MUL2678,MUL324,MUL2678__S_Basti Allah Bakhsh,ZTE,MULTAN,ZTE,Diamond,Diamond,Macro,Central B,HNL,R2,24.0,C6-MUL-07,30.2264,71.53988,2G/LTE,DC Shared,Outdoor,Genset not Installed,ATL,,,7,Non Fixed,Non Switch,-   ,-   ,-   ,-   
2G,MUL3248,MUL323,MUL3248 __S_kabir Shaheed Colony,ZTE,MULTAN,ZTE,Diamond,Diamond,Macro,Central B,HNL,R2,24.0,C6-MUL-08,30.163517,71.433418,2G/LTE,DC Shared,Outdoor,Genset not Installed,E.Co,,,7,Non Fixed,Non Switch,-   ,-   ,-   ,-   
2G,MUL2648,MUL324,MUL2648__S_Hoor Banaspati,ZTE,MULTAN,ZTE,Diamond,Diamond,Macro,Central B,HNL,R2,24.0,C6-MUL-06,30.15913,71.53217,2G/LTE,DC Shared,Outdoor,Genset not Installed,Enfrashare,,,2795,Non Fixed,Non Switch,-   ,-   ,-   ,-   
2G,HYD1370,HYD312,HYD1370__S_Jamia Masjid Farooqia 7D Hyderabad,Huawei,HYDERABAD,Huawei,Diamond,Diamond,Macro,South,MES,R2,34.0,S2-HYD-01,25.37259,68.35431,2G/LTE,DC Shared,Outdoor,Genset not Installed,Enfrashare,,,2146,Non Fixed,Non Switch,-   ,-   ,-   ,-   
2G,LTI2958,ISB002,LTI2958__S_DhokMosahib,Huawei,TALAGANG,Huawei,Diamond,Diamond,Macro,North,Mobiserve,R1,11.0,N1-TLG-09,32.9086,72.1285,2G/LTE,CP Prime,Outdoor,Genset not Installed,JAZZ,,,2213,Non Fixed,Non Switch,-   ,-   ,-   ,-   
2G,LTI0484,ISB002,LTI0484__S_Leti,Huawei,TALAGANG,Huawei,Diamond,Diamond,Macro,North,Mobiserve,R1,11.0,N1-TLG-09,32.9096,72.0663,2G/LTE,Standby,Outdoor,Genset Installed,JAZZ,,,2213,Non Fixed,Non Switch,-   ,-   ,-   ,-   
2G,LBR1693,ISB003,LBR1693__S_BodinKhel,Huawei,BANNU,Huawei,Bronze,Bronze,Macro,North,HNL,R1,17.0,N2-NWA-09,32.99502,70.78852,2G/LTE,T-Prime,Outdoor,Genset Installed,Jazz Host/CM-PAK Guest,,,2230,Non Fixed,Non Switch,-   ,-   ,-   ,-   
2G,LBR1692,ISB003,LBR1692__S_Domail,Huawei,BANNU,Huawei,Elite,Elite,Macro,North,HNL,R1,17.0,N2-NWA-09,33.02119,70.75779,2G/LTE,Standby,Outdoor,Genset Installed,JAZZ,,,2230,Non Fixed,Non Switch,-   ,-   ,-   ,-   
2G,LTK2889,ISB006,LTK2889__S_LassanThakralPhulara,Huawei,MANSEHRA,Huawei,Bronze,Bronze,Macro,North,HNL,R1,15.0,N3-ABT-03,34.3366,73.0559,2G/LTE,CP Prime,Outdoor,Genset not Installed,JAZZ,,,621,Non Fixed,Non Switch,-   ,-   ,-   ,-   
2G,HGW6232,HYD343,HGW6232_Lashari Stop,ZTE,DAUR,ZTE,Diamond,Diamond,Macro,South,MES,R2,33.0,S2-NSH-05,26.404482,68.312818,2G/LTE,DC Shared,Outdoor,Genset Installed,Enfrashare,,,626,Non Fixed,Non Switch,-   ,-   ,-   ,-   
2G,LKN1302,SUK313,LKN1302__S_Opposite Quaid-e-Awam University Larkana_Zong Shared,ZTE,LARKANA,ZTE,Platinum,Platinum,Macro,South,HNL,R2,29.0,S3-LRK-03,27.53112,68.20706,2G/LTE,CP Prime,Outdoor,Genset not Installed,Jazz Guest/CM-PAK Host,,,2519,Non Fixed,Non Switch,-   ,-   ,-   ,-   
2G,LKN4686,SUK313,LKN4686__S_Larkana1 warid_MDLK5692,ZTE,LARKANA,ZTE,Bronze,Bronze,Macro,South,HNL,R2,29.0,S3-LRK-03,27.5635,68.2218,2G/LTE,Standby,Outdoor,Genset Installed,Jazz Host/TELENOR Guest,,,2519,Non Fixed,Non Switch,-   ,-   ,-   ,-   
2G,LKN5045,SUK313,LKN5045__S_Nabi_Bank_Chambers_La,ZTE,LARKANA,ZTE,Diamond,Diamond,Macro,South,HNL,R2,29.0,S3-LRK-03,27.5574,68.2163,2G/LTE,Standby,Outdoor,Genset Installed,JAZZ,,,2503,Non Fixed,Non Switch,-   ,-   ,-   ,-   
2G,LKN5091,SUK313,LKN5091__H_Larkana_Railway_Stati,ZTE,LARKANA,ZTE,Hub,Hub,Macro,South,HNL,R2,29.0,S3-LRK-03,27.5494,68.2078,2G/LTE,Standby,Outdoor,Genset Installed,JAZZ,,,2503,Fixed Site,Switch,22,15,-   ,37
2G,LKN5093,SUK313,LKN5093__S_Gandpri Chowk,ZTE,LARKANA,ZTE,Bronze,Bronze,Macro,South,HNL,R2,29.0,S3-LRK-03,27.5538,68.222,2G/LTE,CP Prime,Outdoor,Genset not Installed,Jazz Host/TELENOR Guest,,,2503,Non Fixed,Non Switch,-   ,-   ,-   ,-   
2G,LKN5739,SUK313,LKN5739__S_Sind Medical Centre,ZTE,LARKANA,ZTE,Bronze,Bronze,Macro,South,HNL,R2,29.0,S3-LRK-03,27.5563,68.2092,2G/LTE,Standby,Outdoor,Genset Installed,JAZZ,,,2503,Non Fixed,Non Switch,-   ,-   ,-   ,-   
2G,LKN5740,SUK313,LKN5740__S_Pakistan Chowk Larkana,ZTE,LARKANA,ZTE,Gold,Gold,Macro,South,HNL,R2,29.0,S3-LRK-03,27.5531,68.215,2G/LTE,CP Prime,Outdoor,Genset not Installed,JAZZ,,,2503,Non Fixed,Non Switch,-   ,-   ,-   ,-   
2G,LKN5741,SUK313,LKN5741__S_City School Larkana,ZTE,LARKANA,ZTE,Hub,Hub,Macro,South,HNL,R2,29.0,S3-LRK-03,27.5673,68.2099,2G/LTE,Standby,Outdoor,Genset Installed,JAZZ,,,211,Non Fixed,Non Switch,-   ,-   ,-   ,-   
2G,LKN5743,SUK313,LKN5743__S_Haidri Muhhalah Nishtar Road,ZTE,LARKANA,ZTE,Diamond,Diamond,Macro,South,HNL,R2,29.0,S3-LRK-03,27.5629,68.2165,2G/LTE,Standby,Outdoor,Genset Installed,JAZZ,,,2503,Non Fixed,Non Switch,-   ,-   ,-   ,-   
2G,LKN5995,SUK313,LKN5995__S_Degree_College,ZTE,LARKANA,ZTE,Platinum,Platinum,Macro,South,HNL,R2,29.0,S3-LRK-03,27.5462,68.2023,2G/LTE,CP Prime,Outdoor,Genset not Installed,JAZZ,,,2503,Non Fixed,Non Switch,-   ,-   ,-   ,-   
2G,LKN6085,SUK313,LKN6085__S_Larkana3 warid_MDLK5694,ZTE,LARKANA,ZTE,Gold,Gold,Macro,South,HNL,R2,29.0,S3-LRK-03,27.5642,68.2046,2G/LTE,Standby,Outdoor,Genset Installed,Jazz Host/UFONE Guest,,,2519,Non Fixed,Non Switch,-   ,-   ,-   ,-   
2G,LKN6299,SUK313,LKN6299__S_Professor Colony,ZTE,LARKANA,ZTE,Diamond,Diamond,Macro,South,HNL,R2,29.0,S3-LRK-03,27.5699,68.1912,2G/LTE,Standby,Outdoor,Genset Installed,JAZZ,,,2503,Fixed Site,Non Switch,1,-   ,-   ,1
2G,LKN6300,SUK313,LKN6300__S_Unnar Filling Station,ZTE,LARKANA,ZTE,Bronze,Bronze,Macro,South,HNL,R2,29.0,S3-LRK-03,27.5165,68.2045,2G/LTE,Standby,Outdoor,Genset Installed,JAZZ,,,2503,Non Fixed,Non Switch,-   ,-   ,-   ,-   
2G,LKN6540,SUK313,LKN6540__S_Aqil Road,ZTE,LARKANA,ZTE,Diamond,Diamond,Macro,South,HNL,R2,29.0,S3-LRK-03,27.5612,68.2229,2G/LTE,Standby,Outdoor,Genset Installed,Jazz Host/TELENOR Guest,,,2503,Non Fixed,Non Switch,-   ,-   ,-   ,-   
2G,LKN6862,SUK313,LKN6862__S_Murad Wahan,ZTE,LARKANA,ZTE,Diamond,Diamond,Macro,South,HNL,R2,29.0,S3-LRK-03,27.546,68.2179,2G/LTE,Standby,Outdoor,Genset Installed,Jazz Host/UFONE+TELENOR Guest,,,2503,Non Fixed,Non Switch,-   ,-   ,-   ,-   
2G,LKN6864,SUK313,LKN6864__S_Madina Floor Mill,ZTE,LARKANA,ZTE,Gold,Gold,Macro,South,HNL,R2,29.0,S3-LRK-03,27.5715,68.2063,2G/LTE,CP Prime,Outdoor,Genset not Installed,JAZZ,,,2503,Non Fixed,Non Switch,-   ,-   ,-   ,-   
2G,LKM4604,ISB003,LKM4604_Dallo Khel,Huawei,LAKKI MARWAT,Huawei,Bronze,Bronze,Macro,North,HNL,R1,17.0,N2-DIK-07,32.602,70.86,2G/LTE,CP Prime,Outdoor,Genset not Installed,Jazz Guest/UFONE Host,,,647,Non Fixed,Non Switch,-   ,-   ,-   ,-   
2G,RUR5336,ISB003,RUR5336_S_Mir Jhang Khel Ghazi Khel PO Ghazni Khe_USF Bannu,Huawei,LAKKI MARWAT,Huawei,Bronze,Bronze,Macro,North,HNL,R1,17.0,N2-DIK-07,32.46126,70.65665,2G/LTE,Standby,Outdoor,Genset Installed,ATL,,,647,Non Fixed,Non Switch,-   ,-   ,-   ,-   
2G,RUR5414,ISB003,RUR5414_S_Kotka Zafar Khan_USF Bannu,Huawei,LAKKI MARWAT,Huawei,Bronze,Bronze,Macro,North,HNL,R1,17.0,N2-DIK-07,32.74759,70.58735,2G/LTE,Standby,Outdoor,Genset Installed,Jazz Guest/UFONE Host,,,641,Non Fixed,Non Switch,-   ,-   ,-   ,-   
2G,RUR5415,ISB003,RUR5415_S_Barghu Adam Zayi_USF Bannu,Huawei,LAKKI MARWAT,Huawei,Diamond,Diamond,Macro,North,HNL,R1,17.0,N2-DIK-07,32.59999,70.67246,2G/LTE,Standby,Outdoor,Genset Installed,ATL,,,641,Non Fixed,Non Switch,-   ,-   ,-   ,-   
2G,RUR5416,ISB003,RUR5416_S_Khasor Baqa Khel_USF Bannu,Huawei,BANNU,Huawei,Bronze,Bronze,Macro,North,HNL,R1,17.0,N2-NWA-09,32.89233,70.44581,2G/LTE,Standby,Outdoor,Genset Installed,ATL,,,3049,Non Fixed,Non Switch,-   ,-   ,-   ,-   
2G,RUR5338,ISB003,RUR5338_S_Wanda Hana Gul_USB Bannu,Huawei,LAKKI MARWAT,Huawei,Bronze,Bronze,Macro,North,HNL,R1,17.0,N2-DIK-07,32.41094,71.0042,2G/LTE,Standby,Outdoor,Genset Installed,ATL,,,647,Non Fixed,Non Switch,-   ,-   ,-   ,-   
2G,RUR5339,ISB003,RUR5339_S_DOULAT KHEL_USF Bannu,Huawei,LAKKI MARWAT,Huawei,Bronze,Bronze,Macro,North,HNL,R1,17.0,N2-DIK-07,32.48935,70.96149,2G/LTE,Standby,Outdoor,Genset Installed,ATL,,,647,Non Fixed,Non Switch,-   ,-   ,-   ,-   
2G,RUR5340,ISB003,RUR5340_S_DOULAT KHEL_USF Bannu,Huawei,LAKKI MARWAT,Huawei,Diamond,Diamond,Macro,North,HNL,R1,17.0,N2-DIK-07,32.53592,71.0894,2G/LTE,Standby,Outdoor,Genset Installed,ATL,,,647,Non Fixed,Non Switch,-   ,-   ,-   ,-   
2G,RUR5334,ISB003,RUR5334_H_USF UNBNU08_Masti Khel Bhittani Lakki Marwat,Huawei,LAKKI MARWAT,Huawei,Bronze,Bronze,Macro,North,HNL,R1,17.0,N2-DIK-07,32.6081,70.49825,2G/LTE,Standby,Outdoor,Genset Installed,ATL,,,641,Non Fixed,Non Switch,-   ,-   ,-   ,-   
2G,RUR1862,SGD341,RUR1862__S_USF Wanda Mir Alam,ZTE,ISAKHEL,ZTE,Bronze,Bronze,Macro,North,HNL,R1,17.0,N2-DIK-07,32.5769,71.23564,2G/LTE,DC Shared,Outdoor,Genset not Installed,ATL,,,405,Non Fixed,Non Switch,-   ,-   ,-   ,-   
2G,RUR2128,SGD341,RUR2128__S_USF Nizami Banda,ZTE,LAKKI MARWAT,ZTE,Bronze,Bronze,Macro,North,HNL,R1,17.0,N2-DIK-07,32.45937,71.16364,2G/LTE,DC Shared,Outdoor,Genset not Installed,ATL,,,405,Non Fixed,Non Switch,-   ,-   ,-   ,-   
2G,RUR2150,ISB002,RUR2150__S_Lakhwal,Huawei,CHAKWAL,Huawei,Gold,Gold,Macro,North,Mobiserve,R1,11.0,N1-CHK-07,33.0257,72.7354,2G/LTE,Standby,Outdoor,Genset Installed,JAZZ,,,693,Non Fixed,Non Switch,-   ,-   ,-   ,-   
2G,RUR0542,ISB002,RUR0542__S_Village_Mengan_CK2793,Huawei,CHAKWAL,Huawei,Gold,Gold,Macro,North,Mobiserve,R1,11.0,N1-CHK-07,32.964,72.7462,2G/LTE,CP Prime,Outdoor,Genset not Installed,JAZZ,,,722,Non Fixed,Non Switch,-   ,-   ,-   ,-   
2G,HGW4790,SUK342,HGW4790_Saeed khan Lakho village hospital,ZTE,KANDIARO,ZTE,Platinum,Platinum,Macro,South,HNL,R2,32.0,S3-RNP-02,26.99665,68.26191,2G/LTE,DC Shared,Outdoor,Genset Installed,ATL,,,238,Non Fixed,Non Switch,-   ,-   ,-   ,-   
2G,RUR5479,ISB003,RUR5479_S_Chuhar Khel_USF Bannu,Huawei,LAKKI MARWAT,Huawei,Bronze,Bronze,Macro,North,HNL,R1,17.0,N2-DIK-07,32.394065,70.897277,2G/LTE,Standby,Outdoor,Genset Installed,ATL,,,2245,Non Fixed,Non Switch,-   ,-   ,-   ,-   
2G,HGW6204,SUK313,HGW6204__S_JAHAN KHAN CMPAK SHARING,ZTE,SUKKUR,ZTE,Gold,Gold,Macro,South,HNL,R2,29.0,S3-SHP-04,27.7933,68.7684,2G/LTE,CP Prime,Outdoor,Genset not Installed,Jazz Guest/CM-PAK Host,,,2507,Non Fixed,Non Switch,-   ,-   ,-   ,-   
2G,LAK0482,SUK313,LAK0482__S_SJ1 warid_MR445744,ZTE,SHIKARPUR,ZTE,Bronze,Bronze,Macro,South,HNL,R2,29.0,S3-SHP-04,27.8432,68.7112,2G/LTE,CP Prime,Outdoor,Genset not Installed,JAZZ,,,616,Non Fixed,Non Switch,-   ,-   ,-   ,-   
2G,LAK1310,SUK314,LAK1310__S_Highway towards Lakhi_Ufone Shared,ZTE,SHIKARPUR,ZTE,Bronze,Bronze,Macro,South,HNL,R2,30.0,S3-SHP-04,27.9052,68.66744,2G/LTE,Standby,Outdoor,Genset Installed,Jazz Guest/UFONE Host,,,594,Non Fixed,Non Switch,-   ,-   ,-   ,-   
2G,LAK6209,SUK313,LAK6209__S_Ghareeb_Shareef,ZTE,SHIKARPUR,ZTE,Hub,Hub,Macro,South,HNL,R2,29.0,S3-SHP-04,27.8501,68.7007,2G/LTE,Standby,Outdoor,Genset Installed,JAZZ,,,616,Non Fixed,Non Switch,-   ,-   ,-   ,-   
2G,LAK6210,SUK313,LAK6210__S_Wazirabad lakhi,ZTE,SHIKARPUR,ZTE,Bronze,Bronze,Macro,South,HNL,R2,29.0,S3-SHP-04,27.8617,68.7113,2G/LTE,Standby,Outdoor,Genset Installed,JAZZ,,,616,Non Fixed,Non Switch,-   ,-   ,-   ,-   
2G,LHR0132,LHR015,LHR0132__P_BilalGunjDarbar,Huawei,LAHORE,Huawei,Elite,Elite,Macro,Central A,Huawei,R1,6.0,C1-LHR-06,31.5806,74.3024,2G/LTE,Standby,Indoor,Genset Installed,JAZZ,,,781,Non Fixed,Non Switch,-   ,-   ,-   ,-   
2G,LHR0136,LHR001,LHR0136__S_Fleming_Road_OELH0154,Huawei,LAHORE,Huawei,Bronze,Bronze,Micro,Central A,Huawei,R1,6.0,C1-LHR-06,31.5721,74.3267,2G/LTE,CP Prime,Outdoor,Genset Not Installed,JAZZ,,,1890,Non Fixed,Non Switch,-   ,-   ,-   ,-   
2G,LHR0138,LHR014,LHR0138__P_Airport,Huawei,LAHORE,Huawei,Platinum,Platinum,Macro,Central A,Huawei,R1,5.0,C1-LHR-04,31.5241,74.3901,2G/LTE,Standby,Outdoor,Genset Installed,JAZZ,,,2216,Fixed Site,Non Switch,-   ,1,-   ,1
2G,RUR1669,LHR012,RUR1669__S_Hir_Village_Bedian_Road_MDLH1248,Huawei,LAHORE,Huawei,Elite,Elite,Macro,Central A,Huawei,R1,3.0,C1-LHR-03,31.4145,74.4902,2G/LTE,Standby,Outdoor,Genset Installed,JAZZ,,,1835,Non Fixed,Non Switch,-   ,-   ,-   ,-   
2G,RUR1671,LHR012,RUR1671__S_Saraich_MDLH4900,Huawei,LAHORE,Huawei,Diamond,Diamond,Macro,Central A,Huawei,R1,3.0,C2-KSR-03,31.3165,74.4388,2G/LTE,CP Prime,Outdoor,Genset not Installed,Jazz Guest/CM-PAK Host,,,1816,Non Fixed,Non Switch,-   ,-   ,-   ,-   
2G,RUR1673,LHR012,RUR1673__S_Bhogan_MDLH4899,Huawei,LAHORE,Huawei,Elite,Elite,Macro,Central A,Huawei,R1,3.0,C2-KSR-03,31.3664,74.4751,2G/LTE,CP Prime,Outdoor,Genset not Installed,Jazz Guest/CM-PAK Host,,,2201,Non Fixed,Non Switch,-   ,-   ,-   ,-   
2G,RUR1708,LHR010,RUR1708__S_Kohrian_MDLH7711,Huawei,LAHORE,Huawei,Platinum,Platinum,Macro,Central A,Huawei,R1,3.0,C1-LHR-03,31.4922,74.5233,2G/LTE,Standby,Outdoor,Genset Installed,JAZZ,,,1808,Non Fixed,Non Switch,-   ,-   ,-   ,-   
2G,RUR1790,LHR012,RUR1790__S_Defense_Road_MDLH1616,Huawei,LAHORE,Huawei,Elite,Elite,Macro,Central A,Huawei,R1,3.0,C2-KSR-03,31.4072,74.419,2G/LTE,Standby,Indoor,Genset Installed,JAZZ,,,1832,Non Fixed,Non Switch,-   ,-   ,-   ,-   
2G,RUR2066,LHR012,RUR2066__Synthetic_PE_LTD,Huawei,LAHORE,Huawei,Bronze,Bronze,Micro,Central A,Huawei,R1,2.0,C2-KSR-03,31.3093,74.3488,2G,CP Prime,Indoor,Genset not Installed,JAZZ,,,1816,Non Fixed,Non Switch,-   ,-   ,-   ,-   
2G,RUR4435,LHR012,RUR4435__S_SUNMalVillage,Huawei,LAHORE,Huawei,Elite,Elite,Macro,Central A,Huawei,R1,3.0,C2-RWD-01,31.3122,74.1599,2G/LTE,Standby,Outdoor,Genset Installed,JAZZ,,,1843,Fixed Site,Non Switch,1,-   ,-   ,1
2G,RUR4436,LHR012,RUR4436__S_Sultan_Kay_Sundar_Raiwind_Road_MR2D3725,Huawei,LAHORE,Huawei,Elite,Elite,Macro,Central A,Huawei,R1,3.0,C2-RWD-01,31.323,74.1509,2G/LTE,Standby,Outdoor,Genset Installed,JAZZ,,,1843,Non Fixed,Non Switch,-   ,-   ,-   ,-   
2G,RUR4441,LHR012,RUR4441__H_MGATalabSarae_n,Huawei,LAHORE,Huawei,Elite,Elite,Macro,Central A,Huawei,R1,28.0,C2-RWD-01,31.27,74.1014,2G/LTE,Standby,Outdoor,Genset Installed,JAZZ,,,654,Non Fixed,Non Switch,-   ,-   ,-   ,-   
2G,RUR4733,LHR012,RUR4733__P_LHRAhmedclny,Huawei,LAHORE,Huawei,Platinum,Platinum,Macro,Central A,Huawei,R1,3.0,C1-LHR-03,31.4127,74.4853,2G/LTE,Standby,Outdoor,Genset Installed,JAZZ,,,1835,Fixed Site,Non Switch,2,-   ,-   ,2
2G,RUR4750,LHR012,RUR4750__P_LHRPajianStopLHR,Huawei,LAHORE,Huawei,Elite,Elite,Macro,Central A,Huawei,R1,3.0,C2-RWD-01,31.3006,74.2248,2G/LTE,CP Prime,Outdoor,Genset not Installed,Jazz Guest/UFONE Host,,,617,Non Fixed,Non Switch,-   ,-   ,-   ,-   
2G,RUR4756,LHR012,RUR4756__S_GujjMatta,Huawei,LAHORE,Huawei,Hub,Hub,Macro,Central A,Huawei,R1,3.0,C2-KSR-03,31.4209,74.4384,2G/LTE,Standby,Outdoor,Genset Installed,JAZZ,,,2201,Non Fixed,Non Switch,-   ,-   ,-   ,-   
2G,RUR5715,LHR012,RUR5715__S_KahnaNauLDACityRoad,Huawei,LAHORE,Huawei,Elite,Elite,Macro,Central A,Huawei,R1,2.0,C2-KSR-03,31.38214,74.35029,2G/LTE,CP Prime,Outdoor,Genset not Installed,Enfrashare,,,632,Non Fixed,Non Switch,-   ,-   ,-   ,-   
2G,RUR5716,LHR012,RUR5716__S_Brahmanabad,Huawei,LAHORE,Huawei,Diamond,Diamond,Macro,Central A,Huawei,R1,4.0,C1-LHR-03,31.44604,74.52866,2G/LTE,DC Shared,Outdoor,Genset not Installed,Enfrashare,,,1835,Non Fixed,Non Switch,-   ,-   ,-   ,-   
2G,LHR5602,LHR012,LHR5602__S_MultanRdNearPGSHS,Huawei,LAHORE,Huawei,Elite,Elite,Macro,Central A,Huawei,R1,3.0,C1-LHR-02,31.40229,74.15851,2G/LTE,DC Shared,Outdoor,Genset not Installed,Enfrashare,,,1864,Non Fixed,Non Switch,-   ,-   ,-   ,-   
2G,RUR5675,LHR010,RUR5675__S_Lakhanke,Huawei,LAHORE,Huawei,Platinum,Platinum,Macro,Central A,Huawei,R1,3.0,C1-LHR-05,31.6065,74.51315,2G/LTE,CP Prime,Outdoor,Genset Not Installed,Enfrashare,,,2211,Non Fixed,Non Switch,-   ,-   ,-   ,-   
2G,SHK5718,LHR013,SHK5718__S_BaddoMurade,Huawei,SHEIKHUPURA,Huawei,Platinum,Platinum,Macro,Central A,Huawei,R1,7.0,C2-SKP-04,31.67955,74.02577,2G/LTE,Standby,Outdoor,Genset Installed,Enfrashare,,,3106,Non Fixed,Non Switch,-   ,-   ,-   ,-   
2G,LHR5683,LHR012,LHR5683__S_CanalGardens,Huawei,LAHORE,Huawei,Elite,Elite,Macro,Central A,Huawei,R1,3.0,C1-LHR-02,31.39212,74.17826,2G/LTE,DC Shared,Outdoor,Genset Not Installed,Enfrashare,,,1864,Non Fixed,Non Switch,-   ,-   ,-   ,-   
2G,LHR5731,LHR016,LHR5731__S_Kamahan,Huawei,LAHORE,Huawei,Elite,Elite,Macro,Central A,Huawei,R1,5.0,C1-LHR-03,31.44418,74.3925,2G/LTE,DC Shared,Outdoor,Genset not Installed,Enfrashare,,,1825,Non Fixed,Non Switch,-   ,-   ,-   ,-   
2G,LHR5739,LHR002,LHR5739__S_ShahpurKanjra,Huawei,LAHORE,Huawei,Elite,Elite,Macro,Central A,Huawei,R1,3.0,C1-LHR-02,31.46417,74.20285,2G/LTE,DC Shared,Outdoor,Genset not Installed,Enfrashare,,,764,Non Fixed,Non Switch,-   ,-   ,-   ,-   
2G,LHR5688,LHR012,LHR5688__S_NishterColony,Huawei,LAHORE,Huawei,Elite,Elite,Macro,Central A,Huawei,R1,4.0,C1-LHR-07,31.41977,74.36148,2G/LTE,CP Prime,Outdoor,Genset not Installed,Enfrashare,,,1832,Non Fixed,Non Switch,-   ,-   ,-   ,-   
2G,RUR5676,LHR010,RUR5676__S_Taqipur,Huawei,LAHORE,Huawei,Platinum,Platinum,Macro,Central A,Huawei,R1,3.0,C1-LHR-05,31.57874,74.52848,2G/LTE,CP Prime,Outdoor,Genset Not Installed,Enfrashare,,,3102,Non Fixed,Non Switch,-   ,-   ,-   ,-   
2G,LHR5797,LHR004,LHR5797__S_MehmoodBooti,Huawei,LAHORE,Huawei,Platinum,Platinum,Macro,Central A,Huawei,R1,3.0,C1-LHR-04,31.602897,74.374973,2G/LTE,DC Shared,Outdoor,Genset not Installed,E.Co,,,1834,Non Fixed,Non Switch,-   ,-   ,-   ,-   
2G,LHR5799,LHR016,LHR5799__S_GECHSPhase3,Huawei,LAHORE,Huawei,Elite,Elite,Macro,Central A,Huawei,R1,3.0,C1-LHR-07,31.46504,74.32018,2G/LTE,DC Shared,Outdoor,Genset not Installed,E.Co,,,628,Non Fixed,Non Switch,-   ,-   ,-   ,-   
2G,LHR5774,LHR004,LHR5774__S_SalahuddinRd,Huawei,LAHORE,Huawei,Elite,Elite,Macro,Central A,Huawei,R1,6.0,C1-LHR-05,31.600872,74.385676,2G/LTE,DC Shared,Outdoor,Genset not Installed,E.Co,,,1834,Non Fixed,Non Switch,-   ,-   ,-   ,-   
2G,LHR5836,LHR012,LHR5836__S_Sufiabad,Huawei,LAHORE,Huawei,Elite,Elite,Macro,Central A,Huawei,R1,4.0,C1-LHR-07,31.424984,74.36703,2G/LTE,CP Prime,Outdoor,Genset not Installed,Enfrashare,,,1832,Non Fixed,Non Switch,-   ,-   ,-   ,-   
2G,LHR5780,LHR015,LHR5780__S_QariRoadIslampura,Huawei,LAHORE,Huawei,Platinum,Platinum,Macro,Central A,Huawei,R1,5.0,C1-LHR-06,31.564,74.2963,2G/LTE,DC Shared,Outdoor,Genset not Installed,E.Co,,,1831,Non Fixed,Non Switch,-   ,-   ,-   ,-   
2G,LHR5708,LHR001,LHR5708__S_KuchaChagtah,Huawei,LAHORE,Huawei,Diamond,Diamond,Macro,Central A,Huawei,R1,5.0,C1-LHR-06,31.57799,74.3199,2G/LTE,CP Prime,Outdoor,Genset not Installed,Enfrashare,,,1876,Non Fixed,Non Switch,-   ,-   ,-   ,-   
2G,LHR5793,LHR012,LHR5793__S_Julliana,Huawei,LAHORE,Huawei,Platinum,Platinum,Macro,Central A,Huawei,R1,3.0,C1-LHR-07,31.38816,74.20228,2G/LTE,DC Shared,Outdoor,Genset not Installed,Enfrashare,,,1864,Non Fixed,Non Switch,-   ,-   ,-   ,-   
2G,LHR5838,LHR010,LHR5838__S_ImperialGardenHomes,Huawei,LAHORE,Huawei,Elite,Elite,Macro,Central A,Huawei,R1,5.0,C1-LHR-03,31.52514,74.45358,2G/LTE,DC Shared,Outdoor,Genset not Installed,Enfrashare,,,1873,Non Fixed,Non Switch,-   ,-   ,-   ,-   
2G,LHR5754,LHR014,LHR5754__S_RailwayOfficersColony,Huawei,LAHORE,Huawei,Elite,Elite,Macro,Central A,Huawei,R1,5.0,C1-LHR-03,31.486,74.3564,2G/LTE,Standby,Outdoor,Genset Installed,JAZZ,,,746,Non Fixed,Non Switch,-   ,-   ,-   ,-   
2G,LHR5833,LHR015,LHR5833__S_EBlockGulshanRavi,Huawei,LAHORE,Huawei,Platinum,Platinum,Macro,Central A,Huawei,R1,5.0,C1-LHR-06,31.5529,74.2756,2G/LTE,DC Shared,Outdoor,Genset not Installed,E.Co,,,710,Non Fixed,Non Switch,-   ,-   ,-   ,-   
2G,LHR5826,LHR014,LHR5826__S_AkramAbad,Huawei,LAHORE,Huawei,Elite,Elite,Macro,Central A,Huawei,R1,5.0,C1-LHR-03,31.496088,74.358494,2G/LTE,DC Shared,Outdoor,Genset not Installed,Enfrashare,,,746,Non Fixed,Non Switch,-   ,-   ,-   ,-   
2G,LHR5846,LHR010,LHR5846__S_RehmatPuraNaiAbadi,Huawei,LAHORE,Huawei,Elite,Elite,Macro,Central A,Huawei,R1,6.0,C1-LHR-05,31.6002876,74.4642105,2G/LTE,CP Prime,Outdoor,Genset not Installed,Enfrashare,,,3102,Non Fixed,Non Switch,-   ,-   ,-   ,-   
2G,LHR5686,LHR016,LHR5686__S_SectorDDPhase4DHA,Huawei,LAHORE,Huawei,Platinum,Platinum,Macro,Central A,Huawei,R1,28.0,C1-LHR-03,31.4633,74.3852,2G/LTE,CP Prime,Outdoor,Genset not Installed,JAZZ,,,623,Non Fixed,Non Switch,-   ,-   ,-   ,-   
2G,LHR6116,LHR001,LHR6116__S_JamiaMasjidMustafai,Huawei,LAHORE,Huawei,Platinum,Platinum,Macro,Central A,Huawei,R1,5.0,C1-LHR-06,31.58999,74.2969,2G/LTE,DC Shared,Outdoor,Genset not Installed,E.Co,,,735,Non Fixed,Non Switch,-   ,-   ,-   ,-   
2G,LHR6311,LHR012,LHR6311__S_BlockF1Valencia,Huawei,LAHORE,Huawei,Elite,Elite,Macro,Central A,Huawei,R1,28.0,C1-LHR-07,31.406592,74.250745,2G/LTE,DC Shared,Outdoor,Genset not Installed,E.Co,,,631,Non Fixed,Non Switch,-   ,-   ,-   ,-   
2G,LHR6309,LHR010,LHR6309__S_HarbanspuraCemetery,Huawei,LAHORE,Huawei,Elite,Elite,Macro,Central A,Huawei,R1,6.0,C1-LHR-05,31.57717,74.42144,2G/LTE,CP Prime,Outdoor,Genset not Installed,E.Co,,,1801,Non Fixed,Non Switch,-   ,-   ,-   ,-   
2G,LHR6302,LHR015,LHR6302__S_PeaceSchoolAfghanChildren,Huawei,LAHORE,Huawei,Platinum,Platinum,Macro,Central A,Huawei,R1,5.0,C1-LHR-06,31.568716,74.274231,2G/LTE,CP Prime,Outdoor,Genset not Installed,Enfrashare,,,1831,Non Fixed,Non Switch,-   ,-   ,-   ,-   
2G,LHR6314,LHR001,LHR6314__S_NearRaviGridStation,Huawei,LAHORE,Huawei,Platinum,Platinum,Macro,Central A,Huawei,R1,6.0,C1-LHR-04,31.606945,74.311587,2G/LTE,CP Prime,Outdoor,Genset not Installed,Enfrashare,,,1827,Non Fixed,Non Switch,-   ,-   ,-   ,-   
2G,RUR6318,LHR010,RUR6318__S_KhawajaFaiq,Huawei,LAHORE,Huawei,Diamond,Diamond,Macro,Central A,Huawei,R1,6.0,C1-LHR-05,31.565677,74.547154,2G/LTE,CP Prime,Outdoor,Genset not Installed,Enfrashare,,,1873,Non Fixed,Non Switch,-   ,-   ,-   ,-   
2G,LHR5696,LHR007,LHR5696__S_WelfareSociety,Huawei,LAHORE,Huawei,Elite,Elite,Macro,Central A,Huawei,R1,5.0,C1-LHR-02,31.5125,74.25726,2G/LTE,DC Shared,Outdoor,Genset not Installed,Enfrashare,,,3012,Non Fixed,Non Switch,-   ,-   ,-   ,-   
2G,LHR5855,LHR010,LHR5855__S_EdenCity,Huawei,LAHORE,Huawei,Platinum,Platinum,Macro,Central A,Huawei,R1,28.0,C1-LHR-03,31.516,74.4459,2G/LTE,Prime,Outdoor,Genset Installed,JAZZ,,,1873,Non Fixed,Non Switch,-   ,-   ,-   ,-   
2G,LHR6284,LHR002,LHR6284__S_BarkatColony,Huawei,LAHORE,Huawei,Elite,Elite,Macro,Central A,Huawei,R1,28.0,C1-LHR-02,31.420375,74.158658,2G/LTE,DC Shared,Outdoor,Genset Installed,Enfrashare,,,764,Non Fixed,Non Switch,-   ,-   ,-   ,-   
2G,LHR6282,LHR010,LHR6282__S_ParagonGridStation,Huawei,LAHORE,Huawei,Platinum,Platinum,Macro,Central A,Huawei,R1,28.0,C1-LHR-03,31.540688,74.460522,2G/LTE,DC Shared,Outdoor,Genset not Installed,E.Co,,,1873,Non Fixed,Non Switch,-   ,-   ,-   ,-   
2G,LHR6168,LHR012,LHR6168__S_RafiBlockBahriaTown,Huawei,LAHORE,Huawei,Elite,Elite,Macro,Central A,Huawei,R1,28.0,C1-LHR-07,31.36324,74.19143,2G/LTE,CP Prime,Outdoor,Genset not Installed,JAZZ,,,633,Non Fixed,Non Switch,-   ,-   ,-   ,-   
2G,LHR6426,LHR016,LHR6426__S_AkbarShaheedChowk_CMPak4561,Huawei,LAHORE,Huawei,Elite,Elite,Macro,Central A,Huawei,R1,4.0,C1-LHR-07,31.4648,74.3345,2G/LTE,CP Prime,Outdoor,Genset not Installed,Jazz Guest/CM-PAK Host,,,778,Non Fixed,Non Switch,-   ,-   ,-   ,-   
2G,RUR6367,LHR012,RUR6367__T_HaierHNRCompanyPvtLtd,Huawei,LAHORE,Huawei,Bronze,Bronze,Micro,Central A,Huawei,R1,28.0,C2-RWD-01,31.303382,74.225626,2G/LTE,CP Prime,Outdoor,Genset not Installed,JAZZ,,,1843,Non Fixed,Non Switch,-   ,-   ,-   ,-   
2G,LHR6308,LHR016,LHR6308__S_JatholVillage,Huawei,LAHORE,Huawei,Platinum,Platinum,Macro,Central A,Huawei,R1,28.0,C1-LHR-03,31.437844,74.405144,2G/LTE,DC Shared,Outdoor,Genset not Installed,E.Co,,,2201,Non Fixed,Non Switch,-   ,-   ,-   ,-   
2G,LHR6316,LHR007,LHR6316__S_GulshanTown,Huawei,LAHORE,Huawei,Elite,Elite,Macro,Central A,Huawei,R1,28.0,C1-LHR-02,31.481588,74.234052,2G/LTE,DC Shared,Outdoor,Genset not Installed,E.Co,,,651,Non Fixed,Non Switch,-   ,-   ,-   ,-   
2G,LHR6191,LHR002,LHR6191__S_EdenPalaceVillas,Huawei,LAHORE,Huawei,Elite,Elite,Macro,Central A,Huawei,R1,3.0,C1-LHR-02,31.43991,74.24189,2G/LTE,DC Shared,Outdoor,Genset not Installed,Enfrashare,,,797,Non Fixed,Non Switch,-   ,-   ,-   ,-   
2G,LHR6289,LHR010,LHR6289__S_Tarogill,Huawei,LAHORE,Huawei,Bronze,Bronze,Macro,Central A,Huawei,R1,28.0,C2-RWD-01,31.366918,74.210635,2G/LTE,DC Shared,Outdoor,Genset not Installed,E.Co,,,,Non Fixed,Non Switch,-   ,-   ,-   ,-   
2G,LHR6192,LHR002,LHR6192__S_RaceCourseTown,Huawei,LAHORE,Huawei,Elite,Elite,Macro,Central A,Huawei,R1,4.0,C1-LHR-07,31.41345,74.336047,2G/LTE,DC Shared,Outdoor,Genset not Installed,Enfrashare,,,3128,Non Fixed,Non Switch,-   ,-   ,-   ,-   
2G,LHR6292,LHR012,LHR6292__S_SherShahColonyModelBazar_CMPak40128,Huawei,LAHORE,Huawei,Elite,Elite,Macro,Central A,Huawei,R1,3.0,C1-LHR-07,31.4111,74.2234,2G/LTE,CP Prime,Outdoor,Genset not Installed,Jazz Guest/CM-PAK Host,,,631,Non Fixed,Non Switch,-   ,-   ,-   ,-   
2G,LHR5879,LHR010,LHR5879__S_SectorDPhase6DHA,Huawei,LAHORE,Huawei,Platinum,Platinum,Macro,Central A,Huawei,R1,5.0,C1-LHR-03,31.4569,74.4506,2G/LTE,CP Prime,Outdoor,Genset not Installed,JAZZ,,,1828,Non Fixed,Non Switch,-   ,-   ,-   ,-   
2G,KHK8314,ISB002,KHK8314__S_Mariewala,Huawei,KHUSHAB,Huawei,Platinum,Platinum,Macro,North,Mobiserve,R2,11.0,N1-KHU-08,32.617,72.2429,2G/LTE,Standby,Outdoor,Genset Installed,JAZZ,,,2213,Non Fixed,Non Switch,-   ,-   ,-   ,-   
2G,HWY2019,BHP352,HWY2019__P_BellaWahga,ZTE,KARROR PAKKA,ZTE,Platinum,Platinum,Macro,Central B,HNL,R2,27.0,C7-LOD-02,29.6099,72.0449,2G/LTE,Standby,Outdoor,Genset Installed,JAZZ,,,2571,Non Fixed,Non Switch,-   ,-   ,-   ,-   
2G,RUR0149,BHP318,RUR0149__S_Basti Jafaran,ZTE,KARROR PAKKA,ZTE,Diamond,Diamond,Macro,Central B,HNL,R2,28.0,C7-BWP-04,29.432,71.1234,2G/LTE,Standby,Outdoor,Genset Installed,JAZZ,,,2912,Non Fixed,Non Switch,-   ,-   ,-   ,-   
2G,KNZ5190,QTA315,KNZ5190_Kaza Viala,ZTE,KHANOZAI,ZTE,Bronze,Bronze,Macro,South,HNL,R2,30.0,S4-ZOB-01,30.8024,67.38089,2G/LTE,DC Shared,Outdoor,Genset Installed,Enfrashare,,,579,Non Fixed,Non Switch,-   ,-   ,-   ,-   
2G,KYB0591,KHI307,KYB0591__S_MirpurSakrotoKetiBender2_4I3775,Huawei,KETI BANDAR,Huawei,Platinum,Platinum,Macro,South,MES,R2,35.0,S2-BDN-02,24.2147,67.557,2G/LTE,Prime,Outdoor,Genset Installed,JAZZ,,,617,Non Fixed,Non Switch,-   ,-   ,-   ,-   
2G,KYB1198,KHI307,KYB1198__S_KetiBandar1_TT2662,Huawei,KETI BANDAR,Huawei,Bronze,Bronze,Macro,South,MES,R2,34.0,S2-BDN-02,24.1439,67.4515,2G/LTE,CP Prime,Outdoor,Genset not Installed,Jazz Guest/UFONE Host,,,617,Non Fixed,Non Switch,-   ,-   ,-   ,-   
2G,KYB1210,KHI307,KYB1210__S_Baghan_TT6878,Huawei,KETI BANDAR,Huawei,Platinum,Platinum,Macro,South,MES,R2,35.0,S2-BDN-02,24.236,67.6068,2G/LTE,Standby,Outdoor,Genset Installed,Jazz Guest/CM-PAK Host,,,617,Non Fixed,Non Switch,-   ,-   ,-   ,-   
2G,KYB5713,KHI307,KYB5713__S_Mirapir,Huawei,KETI BANDAR,Huawei,Hub,Hub,Macro,South,MES,R2,35.0,S2-BDN-02,24.2525,67.6192,2G/LTE,Standby,Outdoor,Genset Installed,JAZZ,,,617,Fixed Site,Non Switch,1,-   ,-   ,1
2G,KYB5714,KHI307,KYB5714__S_Goth MuhammadJatSuleman,Huawei,KETI BANDAR,Huawei,Platinum,Platinum,Macro,South,MES,R2,35.0,S2-BDN-02,24.167,67.5763,2G/LTE,Prime,Outdoor,Genset Installed,JAZZ,,,617,Non Fixed,Non Switch,-   ,-   ,-   ,-   
2G,KWR8862,SGD345,KWR8862__H_Chak59TDA_Khanpur,ZTE,BHAKKAR,ZTE,Bronze,Bronze,Macro,Central B,Mobiserve,R2,22.0,C6-BKR-05,31.4749,71.1635,2G/LTE,CP Prime,Outdoor,Genset not Installed,Jazz Host/TELENOR Guest,,,3088,Non Fixed,Non Switch,-   ,-   ,-   ,-   
2G,KWR8863,SGD345,KWR8863__S_Chak67TDA,ZTE,BHAKKAR,ZTE,Bronze,Bronze,Macro,Central B,Mobiserve,R2,22.0,C6-BKR-05,31.4231,71.0963,2G/LTE,CP Prime,Outdoor,Genset not Installed,Jazz Host/TELENOR Guest,,,3088,Non Fixed,Non Switch,-   ,-   ,-   ,-   
2G,HGW4753,SUK314,HGW4753_Near Katohar,ZTE,GARHI KHAIRO,ZTE,Diamond,Diamond,Macro,South,HNL,R2,29.0,S3-LRK-03,27.97419,68.18401,2G/LTE,DC Shared,Outdoor,Genset Installed,E.Co,,,2521,Non Fixed,Non Switch,-   ,-   ,-   ,-   
2G,KAT2263,PSH005,KAT2263__H_KATLUNG,Huawei,MARDAN,Huawei,Gold,Gold,Macro,North,HNL,R1,18.0,N2-MRD-03,34.356,72.0734,2G/LTE,Standby,Outdoor,Genset Installed,JAZZ,,,782,Fixed Site,Non Switch,1,-   ,-   ,1
2G,KAT2265,PSH005,KAT2265__S_Sawaldher,Huawei,MARDAN,Huawei,Bronze,Bronze,Macro,North,HNL,R1,18.0,N2-MRD-03,34.3096,72.1013,2G/LTE,CP Prime,Outdoor,Genset not Installed,JAZZ,,,2286,Non Fixed,Non Switch,-   ,-   ,-   ,-   
2G,KAT3704,PSH005,KAT3704__S_Katlang_warid_MDMN5162,Huawei,MARDAN,Huawei,Bronze,Bronze,Macro,North,HNL,R1,18.0,N2-MRD-03,34.3637,72.0714,2G/LTE,Standby,Outdoor,Genset Installed,Jazz Host/CM-PAK Guest,,,782,Non Fixed,Non Switch,-   ,-   ,-   ,-   
2G,KAT3705,PSH005,KAT3705__S_Jamal_Garhi_warid_MDMN5038,Huawei,MARDAN,Huawei,Bronze,Bronze,Macro,North,HNL,R1,18.0,N2-MRD-03,34.3146,72.0673,2G/LTE,CP Prime,Outdoor,Genset not Installed,Jazz Guest/TELENOR Host,,,2203,Non Fixed,Non Switch,-   ,-   ,-   ,-   
2G,HWY0686,LHR012,HWY0686__H_MustafabadLHR,Huawei,KASUR,Huawei,Elite,Elite,Macro,Central A,Huawei,R1,2.0,C2-KSR-03,31.2443,74.4212,2G/LTE,Standby,Outdoor,Genset Installed,JAZZ,,,634,Non Fixed,Non Switch,-   ,-   ,-   ,-   
2G,HWY1162,LHR012,HWY1162__P_OffloadHWY9876A,Huawei,PHOOL NAGAR,Huawei,Elite,Elite,Macro,Central A,Huawei,R1,3.0,C2-NNK-05,31.2591,74.0262,2G/LTE,Standby,Outdoor,Genset Installed,Jazz Host/TELENOR Guest,,,654,Non Fixed,Non Switch,-   ,-   ,-   ,-   
2G,HWY1820,LHR005,HWY1820__S_Pakhokee_Stop,Huawei,CHUNIAN,Huawei,Platinum,Platinum,Macro,Central A,Huawei,R1,2.0,C2-KSR-03,30.9042,74.1227,2G/LTE,Standby,Outdoor,Genset Installed,JAZZ,,,754,Non Fixed,Non Switch,-   ,-   ,-   ,-   
2G,HWY1920,LHR005,HWY1920__S_AddaDhingShah,Huawei,CHUNIAN,Huawei,Elite,Elite,Macro,Central A,Huawei,R1,2.0,C2-KSR-03,30.949,74.2191,2G/LTE,Standby,Outdoor,Genset Installed,JAZZ,,,616,Non Fixed,Non Switch,-   ,-   ,-   ,-   
2G,HWY2073,LHR012,HWY2073__S_Iqbal_Nagar_MR235325,Huawei,KASUR,Huawei,Elite,Elite,Macro,Central A,Huawei,R1,3.0,C2-KSR-03,31.1845,74.444,2G/LTE,Standby,Indoor,Genset Installed,JAZZ,,,634,Non Fixed,Non Switch,-   ,-   ,-   ,-   
2G,HWY3833,LHR012,HWY3833__P_KSRWaddanaAddaKasur,Huawei,KASUR,Huawei,Elite,Elite,Macro,Central A,Huawei,R1,2.0,C2-KSR-03,31.1992,74.4388,2G/LTE,Standby,Outdoor,Genset Installed,JAZZ,,,634,Non Fixed,Non Switch,-   ,-   ,-   ,-   
2G,HWY4411,LHR005,HWY4411__S_CHUKotJoianWalaChun,Huawei,CHUNIAN,Huawei,Diamond,Diamond,Macro,Central A,Huawei,R1,2.0,C2-KSR-03,30.9755,74.1491,2G/LTE,Standby,Outdoor,Genset Installed,JAZZ,,,754,Non Fixed,Non Switch,-   ,-   ,-   ,-   
2G,HWY5078,SHW002,HWY5078__S_Umerabad,Huawei,PATTOKI,Huawei,Elite,Elite,Macro,Central A,Huawei,R1,3.0,C2-NNK-05,30.948,73.7353,2G/LTE,Standby,Outdoor,Genset Installed,JAZZ,,,3113,Non Fixed,Non Switch,-   ,-   ,-   ,-   
2G,HWY5133,LHR012,HWY5133__T_Mustafabad_bazar,Huawei,KASUR,Huawei,Bronze,Bronze,Micro,Central A,Huawei,R1,2.0,C2-KSR-03,31.2528,74.4224,2G/LTE,CP Prime,Outdoor,Genset not Installed,JAZZ,,,1816,Non Fixed,Non Switch,-   ,-   ,-   ,-   
2G,HWY7424,SHW002,HWY7424__P_Ameerabad,Huawei,PATTOKI,Huawei,Hub,Hub,Macro,Central A,Huawei,R1,2.0,C2-NNK-05,30.955,73.7509,2G/LTE,Standby,Outdoor,Genset Installed,Jazz Host/CM-PAK Guest,,,3113,Non Fixed,Non Switch,-   ,-   ,-   ,-   
2G,RUR8061,LHR005,RUR8061__S_BahadurPuraVillage,Huawei,KASUR,Huawei,Gold,Gold,Macro,Central A,Huawei,R1,2.0,C2-KSR-03,31.0604,74.3989,2G/LTE,CP Prime,Outdoor,Genset not Installed,Jazz Guest/UFONE Host,,,3101,Non Fixed,Non Switch,-   ,-   ,-   ,-   
2G,RUR8063,LHR012,RUR8063__S_AtheelPur,Huawei,KASUR,Huawei,Platinum,Platinum,Macro,Central A,Huawei,R1,3.0,C2-KSR-03,31.163,74.3829,2G/LTE,Standby,Outdoor,Genset Installed,Jazz Host/CM-PAK Guest,,,3099,Non Fixed,Non Switch,-   ,-   ,-   ,-   
2G,RUR8064,OKR544,RUR8064__S_Moakkal_Village,Huawei,CHUNIAN,Huawei,Platinum,Platinum,Macro,Central A,Huawei,R1,2.0,C2-RWD-01,30.7827,74.1892,2G/LTE,CP Prime,Outdoor,Genset not Installed,JAZZ,,,1862,Non Fixed,Non Switch,-   ,-   ,-   ,-   
2G,RUR8849,LHR011,RUR8849__H_RosaBhail,Huawei,RAIWIND,Huawei,Elite,Elite,Macro,Central A,Huawei,R1,3.0,C2-RWD-01,31.2642,74.1372,2G/LTE,Standby,Outdoor,Genset Installed,JAZZ,,,3123,Fixed Site,Switch,11,8,-   ,19
2G,RUR8850,LHR011,RUR8850__H_MangaChowk,Huawei,RAIWIND,Huawei,Elite,Elite,Macro,Central A,Huawei,R1,3.0,C2-RWD-01,31.2533,74.1822,2G/LTE,Standby,Outdoor,Genset Installed,JAZZ,,,617,Non Fixed,Non Switch,-   ,-   ,-   ,-   
2G,RUR8888,LHR005,RUR8888__H_SaikhumPattoki,Huawei,PATTOKI,Huawei,Elite,Elite,Macro,Central A,Huawei,R1,2.0,C2-NNK-05,31.0676,73.807,2G/LTE,Standby,Outdoor,Genset Installed,JAZZ,,,606,Non Fixed,Non Switch,-   ,-   ,-   ,-   
2G,RUR8941,LHR005,RUR8941__S_KDNKotliRaiAbuakar,Huawei,KASUR,Huawei,Diamond,Diamond,Macro,Central A,Huawei,R1,2.0,C2-KSR-03,31.1026,74.2792,2G/LTE,Standby,Outdoor,Genset Installed,JAZZ,,,3101,Non Fixed,Non Switch,-   ,-   ,-   ,-   
2G,RUR9172,LHR005,RUR9172__S_Bagiana,Huawei,CHUNIAN,Huawei,Elite,Elite,Macro,Central A,Huawei,R1,2.0,C2-KSR-03,30.9403,74.1774,2G/LTE,Standby,Outdoor,Genset Installed,JAZZ,,,754,Non Fixed,Non Switch,-   ,-   ,-   ,-   
2G,RUR9173,OKR544,RUR9173__S_RehmatAliKho,Huawei,CHUNIAN,Huawei,Diamond,Diamond,Macro,Central A,Huawei,R1,2.0,C2-KSR-03,30.8555,74.1821,2G/LTE,Standby,Outdoor,Genset Installed,JAZZ,,,754,Non Fixed,Non Switch,-   ,-   ,-   ,-   
2G,RUR9174,LHR005,RUR9174__S_Heemay_Wala,Huawei,CHUNIAN,Huawei,Platinum,Platinum,Macro,Central A,Huawei,R1,2.0,C2-KSR-03,31.0008,74.1981,2G/LTE,Standby,Outdoor,Genset Installed,JAZZ,,,616,Non Fixed,Non Switch,-   ,-   ,-   ,-   
2G,RUR9175,LHR005,RUR9175__S_Jaggowala,Huawei,KASUR,Huawei,Diamond,Diamond,Macro,Central A,Huawei,R1,2.0,C2-KSR-03,30.9674,74.3233,2G/LTE,Standby,Outdoor,Genset Installed,JAZZ,,,616,Non Fixed,Non Switch,-   ,-   ,-   ,-   
2G,RUR9202,LHR012,RUR9202__S_Daftu,Huawei,KASUR,Huawei,Diamond,Diamond,Macro,Central A,Huawei,R1,3.0,C2-KSR-03,31.2457,74.3814,2G/LTE,Standby,Outdoor,Genset Installed,Jazz Host/CM-PAK Guest,,,1816,Non Fixed,Non Switch,-   ,-   ,-   ,-   
2G,RUR9204,LHR012,RUR9204__P_AmrikSinghWala,Huawei,KASUR,Huawei,Diamond,Diamond,Macro,Central A,Huawei,R1,3.0,C2-KSR-03,31.2493,74.4726,2G/LTE,Standby,Outdoor,Genset Installed,JAZZ,,,1816,Non Fixed,Non Switch,-   ,-   ,-   ,-   
2G,RUR9700,LHR012,RUR9700__P_Packages_PaperMill,Huawei,KASUR,Huawei,Elite,Elite,Macro,Central A,Huawei,R1,3.0,C2-KSR-03,31.1406,74.3544,2G/LTE,Standby,Outdoor,Genset Installed,JAZZ,,,3099,Non Fixed,Non Switch,-   ,-   ,-   ,-   
2G,RUR9831,LHR011,RUR9831__S_CenturyPaperMills,Huawei,PHOOL NAGAR,Huawei,Elite,Elite,Macro,Central A,Huawei,R1,2.0,C2-NNK-05,31.1602,73.9232,2G/LTE,Standby,Outdoor,Genset Installed,Jazz Host/CM-PAK Guest,,,1850,Non Fixed,Non Switch,-   ,-   ,-   ,-   
2G,RUR5372,LHR011,RUR5372__S_Baghiarmar_CMPak7474,Huawei,RAIWIND,Huawei,Diamond,Diamond,Macro,Central A,Huawei,R1,3.0,C2-RWD-01,31.212,74.072,2G/LTE,CP Prime,Outdoor,Genset not Installed,Jazz Guest/CM-PAK Host,,,770,Non Fixed,Non Switch,-   ,-   ,-   ,-   
2G,RUR5358,LHR005,RUR5358__S_FaqeeriaWala,Huawei,KASUR,Huawei,Platinum,Platinum,Macro,Central A,Huawei,R1,2.0,C2-KSR-03,31.09053,74.43893,2G/LTE,CP Prime,Outdoor,Genset not Installed,Enfrashare,,,1823,Non Fixed,Non Switch,-   ,-   ,-   ,-   
2G,RUR5361,LHR005,RUR5361__S_KotlaShaikhNatha,Huawei,KASUR,Huawei,Diamond,Diamond,Macro,Central A,Huawei,R1,2.0,C2-KSR-03,31.0515,74.42241,2G/LTE,CP Prime,Outdoor,Genset not Installed,E.Co,,,3101,Non Fixed,Non Switch,-   ,-   ,-   ,-   
2G,RUR5316,LHR012,RUR5316__S_Grinkot,Huawei,KASUR,Huawei,Platinum,Platinum,Macro,Central A,Huawei,R1,2.0,C2-KSR-03,31.21515,74.47333,2G/LTE,CP Prime,Outdoor,Genset not Installed,E.Co,,,634,Non Fixed,Non Switch,-   ,-   ,-   ,-   
2G,RUR5386,SHW002,RUR5386__S_Chak 7 1AL,Huawei,PATTOKI,Huawei,Gold,Gold,Macro,Central A,HNL,R1,28.0,C3-OKA-03,30.95238,73.672454,2G/LTE,DC Shared,Outdoor,Genset not Installed,Enfrashare,,,3113,Non Fixed,Non Switch,-   ,-   ,-   ,-   
2G,KSR5493,LHR005,KSR5493__S_AzharColony,Huawei,KASUR,Huawei,Elite,Elite,Macro,Central A,Huawei,R1,2.0,C2-KSR-03,31.128107,74.440842,2G/LTE,CP Prime,Indoor,Genset not Installed,Enfrashare,,,618,Non Fixed,Non Switch,-   ,-   ,-   ,-   
2G,KSR5447,LHR005,KSR5447__S_BastiNoorShahWali,Huawei,KASUR,Huawei,Diamond,Diamond,Macro,Central A,Huawei,R1,2.0,C2-KSR-03,31.139787,74.450178,2G/LTE,CP Prime,Indoor,Genset not Installed,Enfrashare,,,2202,Non Fixed,Non Switch,-   ,-   ,-   ,-   
2G,KSR5485,LHR005,KSR5485__S_NewGalianKasur,Huawei,KASUR,Huawei,Platinum,Platinum,Macro,Central A,Huawei,R1,2.0,C2-KSR-03,31.119841,74.450214,2G/LTE,CP Prime,Outdoor,Genset not Installed,Enfrashare,,,618,Non Fixed,Non Switch,-   ,-   ,-   ,-   
2G,KSR5472,LHR005,KSR5472__S_Peerowala,Huawei,KASUR,Huawei,Elite,Elite,Macro,Central A,Huawei,R1,2.0,C2-KSR-03,31.1381,74.4568,2G/LTE,CP Prime,Indoor,Genset not Installed,E.Co,,,618,Non Fixed,Non Switch,-   ,-   ,-   ,-   
2G,KSR5473,LHR005,KSR5473__S_BangalaKamboha,Huawei,KASUR,Huawei,Diamond,Diamond,Macro,Central A,Huawei,R1,2.0,C2-KSR-03,31.099939,74.473456,2G/LTE,CP Prime,Outdoor,Genset not Installed,E.Co,,,1823,Non Fixed,Non Switch,-   ,-   ,-   ,-   
2G,HWY3448,SGD345,HWY3448__S_Karor - Fateh Pur Rd,ZTE,LAYYAH,ZTE,Platinum,Platinum,Macro,Central B,HNL,R2,26.0,C6-LAY-04,31.182133,71.197982,2G/LTE,DC Shared,Outdoor,Genset not Installed,ATL,,,3087,Non Fixed,Non Switch,-   ,-   ,-   ,-   
2G,KCN0978,KHI307,KCN0978__S_GothHajiYaqoobMemon,Huawei,KETI BANDAR,Huawei,Diamond,Diamond,Macro,South,MES,R2,35.0,S2-BDN-02,24.0997,67.5978,2G/LTE,Prime,Outdoor,Genset Installed,JAZZ,,Solar Site,617,Non Fixed,Non Switch,-   ,-   ,-   ,-   
2G,KAR3702,ISB008,KAR3702__S_Kunhar_Chrisitian_Hospital_warid_MDGB3375,Huawei,BALAKOT,Huawei,Bronze,Bronze,Macro,North,HNL,R1,15.0,N3-ABT-03,34.4222,73.3613,2G/LTE,CP Prime,Outdoor,Genset not Installed,JAZZ,,,3067,Non Fixed,Non Switch,-   ,-   ,-   ,-   
2G,KAR3703,ISB008,KAR3703__S_Garhi_Habibullah_warid_MR715449,Huawei,BALAKOT,Huawei,Bronze,Bronze,Macro,North,HNL,R1,15.0,N3-ABT-03,34.4015,73.3807,2G/LTE,Prime,Outdoor,Genset Installed,JAZZ,,Solar Site,3067,Fixed Site,Non Switch,2,-   ,-   ,2
2G,RUR5728,SKT003,RUR5728__S_Karmabad,Huawei,WAZIRABAD,Huawei,Diamond,Diamond,Macro,Central A,Huawei,R1,8.0,C4-WZD-07,32.44652,74.15004,2G/LTE,Standby,Outdoor,Genset Installed,Enfrashare,,,697,Non Fixed,Non Switch,-   ,-   ,-   ,-   
2G,KGW0546,HYD312,KGW0546__S_Hyderabad_to_Badin_Road_3_warid_MR3J3569,Huawei,TANDO GHULAM HYDER,Huawei,Hub,Hub,Macro,South,MES,R2,34.0,S2-BDN-02,24.9528,68.6915,2G/LTE,Standby,Outdoor,Genset Installed,JAZZ,,,609,Non Fixed,Non Switch,-   ,-   ,-   ,-   
2G,KGW6142,HYD312,KGW6142__S_KGW6142__Qalandri_riceMill,Huawei,KARIO GHANWAR,Huawei,Elite,Elite,Macro,South,MES,R2,34.0,S2-BDN-02,24.8121,68.6102,2G/LTE,Standby,Outdoor,Genset Installed,JAZZ,,,609,Non Fixed,Non Switch,-   ,-   ,-   ,-   
2G,KGW6143,HYD312,KGW6143__S_Sarsabz_rice_Mill,Huawei,KARIO GHANWAR,Huawei,Elite,Elite,Macro,South,MES,R2,34.0,S2-BDN-02,24.8048,68.6013,2G/LTE,Standby,Outdoor,Genset Installed,JAZZ,,,609,Non Fixed,Non Switch,-   ,-   ,-   ,-   
2G,KGW6165,HYD312,KGW6165__S_Yousuf_Chang,Huawei,TALHAR,Huawei,Bronze,Bronze,Macro,South,MES,R2,34.0,S2-BDN-02,24.892,68.6958,2G/LTE,Standby,Outdoor,Genset Installed,JAZZ,,,609,Non Fixed,Non Switch,-   ,-   ,-   ,-   
2G,KGW8016,HYD312,KGW8016_Schlumberger KGW _Micro,Huawei,KARIO GHANWAR,Huawei,Bronze,Bronze,Micro,South,MES,R2,34.0,S2-BDN-02,24.7964,68.5741,2G,CP Prime,Outdoor,Genset not Installed,JAZZ,,,609,Non Fixed,Non Switch,-   ,-   ,-   ,-   
2G,KGW9977,HYD312,KGW9977__Q_BP oilfield Khaskheli,Huawei,KARIO GHANWAR,Huawei,Bronze,Bronze,Micro,South,MES,R2,34.0,S2-BDN-02,24.795,68.5724,2G/LTE,CP Prime,Outdoor,Genset not Installed,JAZZ,,,609,Non Fixed,Non Switch,-   ,-   ,-   ,-   
2G,KRW8772,SKT003,KRW8772__P_mohallahShomaliKRW,Huawei,GUJRAT,Huawei,Elite,Elite,Macro,Central A,Huawei,R1,10.0,C4-GRT-04,32.7535,74.2802,2G/LTE,Standby,Indoor,Genset Installed,JAZZ,,,723,Non Fixed,Non Switch,-   ,-   ,-   ,-   
2G,KRW8773,SKT003,KRW8773__P_KarianwalaCity,Huawei,GUJRAT,Huawei,Platinum,Platinum,Macro,Central A,Huawei,R1,10.0,C4-GRT-04,32.746,74.2783,2G/LTE,Standby,Outdoor,Genset Installed,JAZZ,,,723,Fixed Site,Non Switch,1,-   ,-   ,1
2G,KHI9165,KHI305,KHI9165__Q_jauharmorre_micro,Huawei,KARACHI,Huawei,Bronze,Bronze,Micro,South,MES,R2,35.0,S1-GIT-02,24.9043,67.1136,2G/LTE,CP Prime,Outdoor,Genset not Installed,JAZZ,,,2128,Non Fixed,Non Switch,-   ,-   ,-   ,-   
2G,KHI9166,KHI301,KHI9166__S_Burmaoil_KA2271,Huawei,KARACHI,Huawei,Elite,Elite,Macro,South,MES,R2,38.0,S1-STA-07,24.852,66.9808,2G/LTE,CP Prime,Outdoor,Genset not Installed,JAZZ,,,607,Non Fixed,Non Switch,-   ,-   ,-   ,-   
2G,KHI9168,KHI303,KHI9168__S_IttehadTownwarid_MDKA2272,Huawei,KARACHI,Huawei,Platinum,Platinum,Macro,South,MES,R2,38.0,S1-OGT-08,24.9604,66.9593,2G/LTE,Standby,Outdoor,Genset Installed,Jazz Host/TELENOR Guest,,,600,Non Fixed,Non Switch,-   ,-   ,-   ,-   
2G,KHI9177,KHI306,KHI9177__S_Noorabadapartmentswarid_MDKA2275,Huawei,KARACHI,Huawei,Platinum,Platinum,Macro,South,MES,R2,37.0,S1-JST-03,24.8953,67.0711,2G/LTE,CP Prime,Outdoor,Genset not Installed,JAZZ,,,2246,Non Fixed,Non Switch,-   ,-   ,-   ,-   
2G,KHI9181,KHI304,KHI9181__T_IBM_NTO,Huawei,KARACHI,Huawei,Diamond,Diamond,Micro,South,MES,R2,37.0,S1-JST-03,24.8612,67.0659,2G/LTE,CP Prime,Outdoor,Genset not Installed,JAZZ,,,2132,Non Fixed,Non Switch,-   ,-   ,-   ,-   
2G,KHI9182,KHI301,KHI9182__T_lace_market_B_Micro,Huawei,KARACHI,Huawei,Bronze,Bronze,Micro,South,MES,R2,39.0,S1-STA-07,24.85304,66.99833,2G/LTE,CP Prime,Outdoor,Genset not Installed,JAZZ,,,2259,Non Fixed,Non Switch,-   ,-   ,-   ,-   
2G,KHI9183,KHI306,KHI9183__S_SocialSecurityHospital_KA2276,Huawei,KARACHI,Huawei,Diamond,Diamond,Macro,South,MES,R2,38.0,S1-OGT-08,24.9289,67.0159,2G/LTE,Standby,Outdoor,Genset Installed,JAZZ,,,2271,Non Fixed,Non Switch,-   ,-   ,-   ,-   
2G,KHI9185,KHI308,KHI9185__S_SahafiColonywarid_MDKA2279,Huawei,KARACHI,Huawei,Diamond,Diamond,Macro,South,MES,R2,36.0,S1-GBT-04,24.9427,67.0921,2G/LTE,Standby,Outdoor,Genset Installed,JAZZ,,,2105,Non Fixed,Non Switch,-   ,-   ,-   ,-   
2G,KHI9186,KHI308,KHI9186__S_5-F-Newkarachiwarid_MDKA2280,Huawei,KARACHI,Huawei,Gold,Gold,Macro,South,MES,R2,36.0,S1-NNT-05,24.9995,67.0809,2G/LTE,Standby,Outdoor,Genset Installed,JAZZ,,,2223,Non Fixed,Non Switch,-   ,-   ,-   ,-   
2G,KHI9188,KHI302,KHI9188__S_Abbasi Nagar_KA2281,Huawei,KARACHI,Huawei,Gold,Gold,Macro,South,MES,R2,35.0,S1-KGT-10,24.8295,67.1297,2G/LTE,Standby,Indoor,Genset Installed,Jazz Host/UFONE Guest,,,630,Non Fixed,Non Switch,-   ,-   ,-   ,-   
2G,KHI9189,KHI301,KHI9189__T_Chapple Indoor,Huawei,KARACHI,Huawei,Bronze,Bronze,Micro,South,MES,R2,28.0,S1-STA-07,24.8503,67.0028,2G/LTE,CP Prime,Outdoor,Genset not Installed,JAZZ,,,2259,Non Fixed,Non Switch,-   ,-   ,-   ,-   
2G,KHI9191,KHI304,KHI9191__T_CEI_Logistics_Micro,Huawei,KARACHI,Huawei,Bronze,Bronze,Micro,South,MES,R2,37.0,S1-JST-03,24.8598,67.0634,2G/LTE,CP Prime,Outdoor,Genset not Installed,JAZZ,,,2108,Non Fixed,Non Switch,-   ,-   ,-   ,-   
2G,KHI9195,KHI306,KHI9195__S_BhingoriaGothwarid_MDKA2286,Huawei,KARACHI,Huawei,Platinum,Platinum,Macro,South,MES,R2,37.0,S1-JST-03,24.9135,67.0697,2G/LTE,Standby,Outdoor,Genset Installed,Jazz Host/UFONE+TELENOR Guest,,,2135,Non Fixed,Non Switch,-   ,-   ,-   ,-   
2G,KHI9351,KHI304,KHI9351__S_NearSharaeIran_KA2375,Huawei,KARACHI,Huawei,Diamond,Diamond,Macro,South,MES,R2,39.0,S1-DHA-06,24.8178,67.0239,2G/LTE,Standby,Outdoor,Genset Installed,JAZZ,,,2169,Non Fixed,Non Switch,-   ,-   ,-   ,-   
2G,KHI9355,KHI309,KHI9355__T_Gul_Plaza,Huawei,KARACHI,Huawei,Bronze,Bronze,Micro,South,MES,R2,28.0,S1-STB-09,24.8651,67.023,2G/LTE,CP Prime,Outdoor,Genset not Installed,JAZZ,,,2225,Non Fixed,Non Switch,-   ,-   ,-   ,-   
2G,KHI9356,KHI304,KHI9356__T_GulCenter,Huawei,KARACHI,Huawei,Bronze,Bronze,Micro,South,MES,R2,28.0,S1-STB-09,24.8597,67.02768,2G/LTE,CP Prime,Outdoor,Genset not Installed,JAZZ,,,2254,Non Fixed,Non Switch,-   ,-   ,-   ,-   
2G,KHI9358,KHI308,KHI9358__S_Newkarachi5Gwarid_MDKA2377,Huawei,KARACHI,Huawei,Gold,Gold,Macro,South,MES,R2,36.0,S1-NNT-05,24.9916,67.0806,2G/LTE,Standby,Outdoor,Genset Installed,JAZZ,,,2229,Non Fixed,Non Switch,-   ,-   ,-   ,-   
2G,KHI9359,KHI309,KHI9359__T_Nausheen_Centre_Urdu_Bazar,Huawei,KARACHI,Huawei,Bronze,Bronze,Micro,South,MES,R2,28.0,S1-STB-09,24.8588,67.0174,2G/LTE,CP Prime,Outdoor,Genset not Installed,JAZZ,,,2255,Non Fixed,Non Switch,-   ,-   ,-   ,-   
2G,KHI9360,KHI309,KHI9360__T_Jama_Cloth_Market,Huawei,KARACHI,Huawei,Bronze,Bronze,Micro,South,MES,R2,28.0,S1-STB-09,24.8585,67.0141,2G/LTE,CP Prime,Outdoor,Genset not Installed,JAZZ,,,2225,Non Fixed,Non Switch,-   ,-   ,-   ,-   
2G,KHI9362,KHI308,KHI9362__S_Newkarachisector5-Awarid_MDKA2378,Huawei,KARACHI,Huawei,Diamond,Diamond,Macro,South,MES,R2,36.0,S1-NNT-05,25.0007,67.0548,2G/LTE,Standby,Outdoor,Genset Installed,Jazz Host/TELENOR Guest,,,2227,Non Fixed,Non Switch,-   ,-   ,-   ,-   
2G,KHI9363,KHI308,KHI9363__S_Sector5-D_NewKarachiwarid_MDKA2379,Huawei,KARACHI,Huawei,Gold,Gold,Macro,South,MES,R2,36.0,S1-NNT-05,25.0032,67.068,2G/LTE,Standby,Outdoor,Genset Installed,JAZZ,,,2229,Non Fixed,Non Switch,-   ,-   ,-   ,-   
2G,KHI9366,KHI308,KHI9366__S_Newkarachisector5-G2warid_MDKA2380,Huawei,KARACHI,Huawei,Gold,Gold,Macro,South,MES,R2,36.0,S1-NNT-05,24.9944,67.0873,2G/LTE,Standby,Outdoor,Genset Installed,JAZZ,,,2223,Non Fixed,Non Switch,-   ,-   ,-   ,-   
2G,KHI9367,KHI301,KHI9367__T_National_Bank,Huawei,KARACHI,Huawei,Bronze,Bronze,Micro,South,MES,R2,28.0,S1-STA-07,24.84901,67.00265,2G/LTE,CP Prime,Outdoor,Genset not Installed,JAZZ,,,2259,Non Fixed,Non Switch,-   ,-   ,-   ,-   
2G,KHI9368,KHI308,KHI9368__S_Sector7D_NorthKarachiwarid_MDKA2381,Huawei,KARACHI,Huawei,Elite,Elite,Macro,South,MES,R2,36.0,S1-NNT-05,24.9651,67.0483,2G/LTE,Standby,Outdoor,Genset Installed,JAZZ,,,2171,Non Fixed,Non Switch,-   ,-   ,-   ,-   
2G,KHI9369,KHI305,KHI9369__S_PakistanToolFactory_KA2383,Huawei,KARACHI,Huawei,Diamond,Diamond,Macro,South,MES,R2,35.0,S1-KGT-10,24.8358,67.2321,2G/LTE,Standby,Outdoor,Genset Installed,JAZZ,,,613,Non Fixed,Non Switch,-   ,-   ,-   ,-   
2G,KHI9373,KHI306,KHI9373__S_PIBcolonywarid_MDKA2385,Huawei,KARACHI,Huawei,Diamond,Diamond,Macro,South,MES,R2,37.0,S1-JST-03,24.8962,67.0583,2G/LTE,CP Prime,Outdoor,Genset not Installed,JAZZ,,,2245,Non Fixed,Non Switch,-   ,-   ,-   ,-   
2G,KHI9377,KHI306,KHI9377__T_AKUH_Micro_2,Huawei,KARACHI,Huawei,Bronze,Bronze,Micro,South,MES,R2,37.0,S1-JST-03,24.8912,67.0739,2G,CP Prime,Outdoor,Genset not Installed,JAZZ,,,2132,Non Fixed,Non Switch,-   ,-   ,-   ,-   
2G,KHI9379,KHI308,KHI9379__S_Sector11-B_NorthKarachiwarid_MDKA2397,Huawei,KARACHI,Huawei,Platinum,Platinum,Macro,South,MES,R2,36.0,S1-NNT-05,24.9784,67.0606,2G/LTE,Standby,Outdoor,Genset Installed,JAZZ,,,2227,Non Fixed,Non Switch,-   ,-   ,-   ,-   
